{"results": [{"custom_school_name": "CS Goth Sassnak Mana", "custom_district": "Ziarat", "custom_tehsil": "ZIARAT", "custom_division": "QUETTA", "custom_level": "Primary", "custom_gender": "Boys", "custom_students": 38, "custom_functional_status": "Functional", "custom_latitude": 30.3827, "custom_longitude": 67.7215, "gov_school_name": "GBMIDS SASSNAK MANA", "gov_level": "Middle", "gov_gender": "Boys", "gov_district": "Ziarat", "gov_tehsil": "ZIARAT", "gov_uc": "Manna", "gov_enrollment": 296, "distance_km": 0.0, "gov_latitude": 30.3827, "gov_longitude": 67.7215, "gov_schools_count": 22}, {"custom_school_name": "CS Goth Sassnak Mana", "custom_district": "Ziarat", "custom_tehsil": "ZIARAT", "custom_division": "QUETTA", "custom_level": "Primary", "custom_gender": "Boys", "custom_students": 38, "custom_functional_status": "Functional", "custom_latitude": 30.3827, "custom_longitude": 67.7215, "gov_school_name": "GBPS KILLI YAR MUHAMMAD SASSNAK MANA", "gov_level": "Primary", "gov_gender": "Boys", "gov_district": "Ziarat", "gov_tehsil": "ZIARAT", "gov_uc": "Manna", "gov_enrollment": 45, "distance_km": 0.36, "gov_latitude": 30.3856, "gov_longitude": 67.7198, "gov_schools_count": 22}, {"custom_school_name": "CS Goth Sassnak Mana", "custom_district": "Ziarat", "custom_tehsil": "ZIARAT", "custom_division": "QUETTA", "custom_level": "Primary", "custom_gender": "Boys", "custom_students": 38, "custom_functional_status": "Functional", "custom_latitude": 30.3827, "custom_longitude": 67.7215, "gov_school_name": "GBPS DAWAT MANA", "gov_level": "Primary", "gov_gender": "Boys", "gov_district": "Ziarat", "gov_tehsil": "ZIARAT", "gov_uc": "Spezandi", "gov_enrollment": 39, "distance_km": 0.89, "gov_latitude": 30.3778, "gov_longitude": 67.7289, "gov_schools_count": 22}, {"custom_school_name": "CS Goth Sassnak Mana", "custom_district": "Ziarat", "custom_tehsil": "ZIARAT", "custom_division": "QUETTA", "custom_level": "Primary", "custom_gender": "Boys", "custom_students": 38, "custom_functional_status": "Functional", "custom_latitude": 30.3827, "custom_longitude": 67.7215, "gov_school_name": "GBPS WASTI SPAZUNDI", "gov_level": "Primary", "gov_gender": "Boys", "gov_district": "Ziarat", "gov_tehsil": "ZIARAT", "gov_uc": "Spezandi", "gov_enrollment": 44, "distance_km": 1.26, "gov_latitude": 30.3812, "gov_longitude": 67.7345, "gov_schools_count": 22}, {"custom_school_name": "CS Goth Sassnak Mana", "custom_district": "Ziarat", "custom_tehsil": "ZIARAT", "custom_division": "QUETTA", "custom_level": "Primary", "custom_gender": "Boys", "custom_students": 38, "custom_functional_status": "Functional", "custom_latitude": 30.3827, "custom_longitude": 67.7215, "gov_school_name": "GBPS KARHAHI LANDI SASNAK MANNA", "gov_level": "Primary", "gov_gender": "Boys", "gov_district": "Ziarat", "gov_tehsil": "ZIARAT", "gov_uc": "Manna", "gov_enrollment": 38, "distance_km": 1.3, "gov_latitude": 30.3932, "gov_longitude": 67.7156, "gov_schools_count": 22}, {"custom_school_name": "CS Goth Sassnak Mana", "custom_district": "Ziarat", "custom_tehsil": "ZIARAT", "custom_division": "QUETTA", "custom_level": "Primary", "custom_gender": "Boys", "custom_students": 38, "custom_functional_status": "Functional", "custom_latitude": 30.3827, "custom_longitude": 67.7215, "gov_school_name": "GBPS SASAN MANNA SALEEM SAKHORI", "gov_level": "Primary", "gov_gender": "Boys", "gov_district": "Ziarat", "gov_tehsil": "ZIARAT", "gov_uc": "Manna", "gov_enrollment": 52, "distance_km": 2.39, "gov_latitude": 30.4012, "gov_longitude": 67.7089, "gov_schools_count": 22}, {"custom_school_name": "CS Goth Sassnak Mana", "custom_district": "Ziarat", "custom_tehsil": "ZIARAT", "custom_division": "QUETTA", "custom_level": "Primary", "custom_gender": "Boys", "custom_students": 38, "custom_functional_status": "Functional", "custom_latitude": 30.3827, "custom_longitude": 67.7215, "gov_school_name": "GBMIDS SASSAN MANNA", "gov_level": "Middle", "gov_gender": "Boys", "gov_district": "Ziarat", "gov_tehsil": "ZIARAT", "gov_uc": "Manna", "gov_enrollment": 187, "distance_km": 2.45, "gov_latitude": 30.4023, "gov_longitude": 67.7098, "gov_schools_count": 22}, {"custom_school_name": "CS Goth Sassnak Mana", "custom_district": "Ziarat", "custom_tehsil": "ZIARAT", "custom_division": "QUETTA", "custom_level": "Primary", "custom_gender": "Boys", "custom_students": 38, "custom_functional_status": "Functional", "custom_latitude": 30.3827, "custom_longitude": 67.7215, "gov_school_name": "GBPS KILLI FAQIR ABAD MANA", "gov_level": "Primary", "gov_gender": "Boys", "gov_district": "Ziarat", "gov_tehsil": "ZIARAT", "gov_uc": "Manna", "gov_enrollment": 41, "distance_km": 2.46, "gov_latitude": 30.4025, "gov_longitude": 67.7101, "gov_schools_count": 22}, {"custom_school_name": "CS Goth Sassnak Mana", "custom_district": "Ziarat", "custom_tehsil": "ZIARAT", "custom_division": "QUETTA", "custom_level": "Primary", "custom_gender": "Boys", "custom_students": 38, "custom_functional_status": "Functional", "custom_latitude": 30.3827, "custom_longitude": 67.7215, "gov_school_name": "GBPS ZEREEN SPAZUNDI", "gov_level": "Primary", "gov_gender": "Boys", "gov_district": "Ziarat", "gov_tehsil": "ZIARAT", "gov_uc": "Spezandi", "gov_enrollment": 51, "distance_km": 2.66, "gov_latitude": 30.3665, "gov_longitude": 67.7419, "gov_schools_count": 22}, {"custom_school_name": "CS Goth Sassnak Mana", "custom_district": "Ziarat", "custom_tehsil": "ZIARAT", "custom_division": "QUETTA", "custom_level": "Primary", "custom_gender": "Boys", "custom_students": 38, "custom_functional_status": "Functional", "custom_latitude": 30.3827, "custom_longitude": 67.7215, "gov_school_name": "GBPS SHARQI ZARGI", "gov_level": "Primary", "gov_gender": "Boys", "gov_district": "Ziarat", "gov_tehsil": "ZIARAT", "gov_uc": "Spezandi", "gov_enrollment": 48, "distance_km": 2.67, "gov_latitude": 30.3673, "gov_longitude": 67.7428, "gov_schools_count": 22}, {"custom_school_name": "CS Goth Sassnak Mana", "custom_district": "Ziarat", "custom_tehsil": "ZIARAT", "custom_division": "QUETTA", "custom_level": "Primary", "custom_gender": "Boys", "custom_students": 38, "custom_functional_status": "Functional", "custom_latitude": 30.3827, "custom_longitude": 67.7215, "gov_school_name": "GGHS ZARGI KILLI ABDULLAH JAN", "gov_level": "High", "gov_gender": "Girls", "gov_district": "Ziarat", "gov_tehsil": "ZIARAT", "gov_uc": "Spezandi", "gov_enrollment": 234, "distance_km": 2.68, "gov_latitude": 30.3723, "gov_longitude": 67.7467, "gov_schools_count": 22}, {"custom_school_name": "CS Goth Sassnak Mana", "custom_district": "Ziarat", "custom_tehsil": "ZIARAT", "custom_division": "QUETTA", "custom_level": "Primary", "custom_gender": "Boys", "custom_students": 38, "custom_functional_status": "Functional", "custom_latitude": 30.3827, "custom_longitude": 67.7215, "gov_school_name": "GGMIDS SHARQI ZARGAI", "gov_level": "Middle", "gov_gender": "Girls", "gov_district": "Ziarat", "gov_tehsil": "ZIARAT", "gov_uc": "Spezandi", "gov_enrollment": 156, "distance_km": 2.74, "gov_latitude": 30.3834, "gov_longitude": 67.7501, "gov_schools_count": 22}, {"custom_school_name": "CS Goth Sassnak Mana", "custom_district": "Ziarat", "custom_tehsil": "ZIARAT", "custom_division": "QUETTA", "custom_level": "Primary", "custom_gender": "Boys", "custom_students": 38, "custom_functional_status": "Functional", "custom_latitude": 30.3827, "custom_longitude": 67.7215, "gov_school_name": "GBMIDS ZARGI", "gov_level": "Middle", "gov_gender": "Boys", "gov_district": "Ziarat", "gov_tehsil": "ZIARAT", "gov_uc": "Spezandi", "gov_enrollment": 167, "distance_km": 2.84, "gov_latitude": 30.3645, "gov_longitude": 67.7423, "gov_schools_count": 22}, {"custom_school_name": "CS Goth Sassnak Mana", "custom_district": "Ziarat", "custom_tehsil": "ZIARAT", "custom_division": "QUETTA", "custom_level": "Primary", "custom_gender": "Boys", "custom_students": 38, "custom_functional_status": "Functional", "custom_latitude": 30.3827, "custom_longitude": 67.7215, "gov_school_name": "GBPS LUNDI SPINZANDI", "gov_level": "Primary", "gov_gender": "Boys", "gov_district": "Ziarat", "gov_tehsil": "ZIARAT", "gov_uc": "Spezandi", "gov_enrollment": 37, "distance_km": 3.08, "gov_latitude": 30.3856, "gov_longitude": 67.7534, "gov_schools_count": 22}, {"custom_school_name": "CS Goth Sassnak Mana", "custom_district": "Ziarat", "custom_tehsil": "ZIARAT", "custom_division": "QUETTA", "custom_level": "Primary", "custom_gender": "Boys", "custom_students": 38, "custom_functional_status": "Functional", "custom_latitude": 30.3827, "custom_longitude": 67.7215, "gov_school_name": "GBPS SHARQUI SASSAN MANA", "gov_level": "Primary", "gov_gender": "Boys", "gov_district": "Ziarat", "gov_tehsil": "ZIARAT", "gov_uc": "Manna", "gov_enrollment": 67, "distance_km": 3.23, "gov_latitude": 30.4078, "gov_longitude": 67.7045, "gov_schools_count": 22}, {"custom_school_name": "CS Goth Sassnak Mana", "custom_district": "Ziarat", "custom_tehsil": "ZIARAT", "custom_division": "QUETTA", "custom_level": "Primary", "custom_gender": "Boys", "custom_students": 38, "custom_functional_status": "Functional", "custom_latitude": 30.3827, "custom_longitude": 67.7215, "gov_school_name": "GBPS KILLI AZAM MANA", "gov_level": "Primary", "gov_gender": "Boys", "gov_district": "Ziarat", "gov_tehsil": "ZIARAT", "gov_uc": "Spezandi", "gov_enrollment": 42, "distance_km": 3.3, "gov_latitude": 30.3867, "gov_longitude": 67.7556, "gov_schools_count": 22}, {"custom_school_name": "CS Goth Sassnak Mana", "custom_district": "Ziarat", "custom_tehsil": "ZIARAT", "custom_division": "QUETTA", "custom_level": "Primary", "custom_gender": "Boys", "custom_students": 38, "custom_functional_status": "Functional", "custom_latitude": 30.3827, "custom_longitude": 67.7215, "gov_school_name": "GBHS SPAZUNDI", "gov_level": "High", "gov_gender": "Boys", "gov_district": "Ziarat", "gov_tehsil": "ZIARAT", "gov_uc": "Spezandi", "gov_enrollment": 389, "distance_km": 3.65, "gov_latitude": 30.3889, "gov_longitude": 67.7589, "gov_schools_count": 22}, {"custom_school_name": "CS Goth Sassnak Mana", "custom_district": "Ziarat", "custom_tehsil": "ZIARAT", "custom_division": "QUETTA", "custom_level": "Primary", "custom_gender": "Boys", "custom_students": 38, "custom_functional_status": "Functional", "custom_latitude": 30.3827, "custom_longitude": 67.7215, "gov_school_name": "GBPS GORISTEEN MANA", "gov_level": "Primary", "gov_gender": "Boys", "gov_district": "Ziarat", "gov_tehsil": "ZIARAT", "gov_uc": "Spezandi", "gov_enrollment": 46, "distance_km": 3.9, "gov_latitude": 30.3901, "gov_longitude": 67.7612, "gov_schools_count": 22}, {"custom_school_name": "CS Goth Sassnak Mana", "custom_district": "Ziarat", "custom_tehsil": "ZIARAT", "custom_division": "QUETTA", "custom_level": "Primary", "custom_gender": "Boys", "custom_students": 38, "custom_functional_status": "Functional", "custom_latitude": 30.3827, "custom_longitude": 67.7215, "gov_school_name": "GGPS KHARY GUT MANA", "gov_level": "Primary", "gov_gender": "Girls", "gov_district": "Ziarat", "gov_tehsil": "ZIARAT", "gov_uc": "Spezandi", "gov_enrollment": 53, "distance_km": 3.92, "gov_latitude": 30.3903, "gov_longitude": 67.7614, "gov_schools_count": 22}, {"custom_school_name": "CS Goth Sassnak Mana", "custom_district": "Ziarat", "custom_tehsil": "ZIARAT", "custom_division": "QUETTA", "custom_level": "Primary", "custom_gender": "Boys", "custom_students": 38, "custom_functional_status": "Functional", "custom_latitude": 30.3827, "custom_longitude": 67.7215, "gov_school_name": "GPS NARAI DAAG", "gov_level": "Primary", "gov_gender": "Girls", "gov_district": "Ziarat", "gov_tehsil": "ZIARAT", "gov_uc": "Spezandi", "gov_enrollment": 49, "distance_km": 4.03, "gov_latitude": 30.3912, "gov_longitude": 67.7623, "gov_schools_count": 22}, {"custom_school_name": "CS Goth Sassnak Mana", "custom_district": "Ziarat", "custom_tehsil": "ZIARAT", "custom_division": "QUETTA", "custom_level": "Primary", "custom_gender": "Boys", "custom_students": 38, "custom_functional_status": "Functional", "custom_latitude": 30.3827, "custom_longitude": 67.7215, "gov_school_name": "GGPS AFZAL MANNA", "gov_level": "Primary", "gov_gender": "Girls", "gov_district": "Ziarat", "gov_tehsil": "ZIARAT", "gov_uc": "Spezandi", "gov_enrollment": 57, "distance_km": 4.16, "gov_latitude": 30.3923, "gov_longitude": 67.7634, "gov_schools_count": 22}, {"custom_school_name": "CS Goth Sassnak Mana", "custom_district": "Ziarat", "custom_tehsil": "ZIARAT", "custom_division": "QUETTA", "custom_level": "Primary", "custom_gender": "Boys", "custom_students": 38, "custom_functional_status": "Functional", "custom_latitude": 30.3827, "custom_longitude": 67.7215, "gov_school_name": "GGMIDS SPAZUNDI", "gov_level": "Middle", "gov_gender": "Girls", "gov_district": "Ziarat", "gov_tehsil": "ZIARAT", "gov_uc": "Spezandi", "gov_enrollment": 178, "distance_km": 4.63, "gov_latitude": 30.3945, "gov_longitude": 67.7678, "gov_schools_count": 22}, {"custom_school_name": "BEC Community School Zargi", "custom_district": "Ziarat", "custom_tehsil": "ZIARAT", "custom_division": "QUETTA", "custom_level": "Middle", "custom_gender": "Boys", "custom_students": 91, "custom_functional_status": "Functional", "custom_latitude": 30.3645, "custom_longitude": 67.7423, "gov_school_name": "GBMIDS ZARGI", "gov_level": "Middle", "gov_gender": "Boys", "gov_district": "Ziarat", "gov_tehsil": "ZIARAT", "gov_uc": "Spezandi", "gov_enrollment": 167, "distance_km": 0.0, "gov_latitude": 30.3645, "gov_longitude": 67.7423, "gov_schools_count": 19}, {"custom_school_name": "BEC Community School Zargi", "custom_district": "Ziarat", "custom_tehsil": "ZIARAT", "custom_division": "QUETTA", "custom_level": "Middle", "custom_gender": "Boys", "custom_students": 91, "custom_functional_status": "Functional", "custom_latitude": 30.3645, "custom_longitude": 67.7423, "gov_school_name": "GBPS ZEREEN SPAZUNDI", "gov_level": "Primary", "gov_gender": "Boys", "gov_district": "Ziarat", "gov_tehsil": "ZIARAT", "gov_uc": "Spezandi", "gov_enrollment": 51, "distance_km": 0.23, "gov_latitude": 30.3665, "gov_longitude": 67.7419, "gov_schools_count": 19}, {"custom_school_name": "BEC Community School Zargi", "custom_district": "Ziarat", "custom_tehsil": "ZIARAT", "custom_division": "QUETTA", "custom_level": "Middle", "custom_gender": "Boys", "custom_students": 91, "custom_functional_status": "Functional", "custom_latitude": 30.3645, "custom_longitude": 67.7423, "gov_school_name": "GBPS SHARQI ZARGI", "gov_level": "Primary", "gov_gender": "Boys", "gov_district": "Ziarat", "gov_tehsil": "ZIARAT", "gov_uc": "Spezandi", "gov_enrollment": 48, "distance_km": 0.32, "gov_latitude": 30.3673, "gov_longitude": 67.7428, "gov_schools_count": 19}, {"custom_school_name": "BEC Community School Zargi", "custom_district": "Ziarat", "custom_tehsil": "ZIARAT", "custom_division": "QUETTA", "custom_level": "Middle", "custom_gender": "Boys", "custom_students": 91, "custom_functional_status": "Functional", "custom_latitude": 30.3645, "custom_longitude": 67.7423, "gov_school_name": "GGHS ZARGI KILLI ABDULLAH JAN", "gov_level": "High", "gov_gender": "Girls", "gov_district": "Ziarat", "gov_tehsil": "ZIARAT", "gov_uc": "Spezandi", "gov_enrollment": 234, "distance_km": 0.96, "gov_latitude": 30.3723, "gov_longitude": 67.7467, "gov_schools_count": 19}, {"custom_school_name": "BEC Community School Zargi", "custom_district": "Ziarat", "custom_tehsil": "ZIARAT", "custom_division": "QUETTA", "custom_level": "Middle", "custom_gender": "Boys", "custom_students": 91, "custom_functional_status": "Functional", "custom_latitude": 30.3645, "custom_longitude": 67.7423, "gov_school_name": "GBPS DAWAT MANA", "gov_level": "Primary", "gov_gender": "Boys", "gov_district": "Ziarat", "gov_tehsil": "ZIARAT", "gov_uc": "Spezandi", "gov_enrollment": 39, "distance_km": 1.96, "gov_latitude": 30.3778, "gov_longitude": 67.7289, "gov_schools_count": 19}, {"custom_school_name": "BEC Community School Zargi", "custom_district": "Ziarat", "custom_tehsil": "ZIARAT", "custom_division": "QUETTA", "custom_level": "Middle", "custom_gender": "Boys", "custom_students": 91, "custom_functional_status": "Functional", "custom_latitude": 30.3645, "custom_longitude": 67.7423, "gov_school_name": "GBPS WASTI SPAZUNDI", "gov_level": "Primary", "gov_gender": "Boys", "gov_district": "Ziarat", "gov_tehsil": "ZIARAT", "gov_uc": "Spezandi", "gov_enrollment": 44, "distance_km": 2.0, "gov_latitude": 30.3812, "gov_longitude": 67.7345, "gov_schools_count": 19}, {"custom_school_name": "BEC Community School Zargi", "custom_district": "Ziarat", "custom_tehsil": "ZIARAT", "custom_division": "QUETTA", "custom_level": "Middle", "custom_gender": "Boys", "custom_students": 91, "custom_functional_status": "Functional", "custom_latitude": 30.3645, "custom_longitude": 67.7423, "gov_school_name": "GGMIDS SHARQI ZARGAI", "gov_level": "Middle", "gov_gender": "Girls", "gov_district": "Ziarat", "gov_tehsil": "ZIARAT", "gov_uc": "Spezandi", "gov_enrollment": 156, "distance_km": 2.23, "gov_latitude": 30.3834, "gov_longitude": 67.7501, "gov_schools_count": 19}, {"custom_school_name": "BEC Community School Zargi", "custom_district": "Ziarat", "custom_tehsil": "ZIARAT", "custom_division": "QUETTA", "custom_level": "Middle", "custom_gender": "Boys", "custom_students": 91, "custom_functional_status": "Functional", "custom_latitude": 30.3645, "custom_longitude": 67.7423, "gov_school_name": "GBPS LUNDI SPINZANDI", "gov_level": "Primary", "gov_gender": "Boys", "gov_district": "Ziarat", "gov_tehsil": "ZIARAT", "gov_uc": "Spezandi", "gov_enrollment": 37, "distance_km": 2.58, "gov_latitude": 30.3856, "gov_longitude": 67.7534, "gov_schools_count": 19}, {"custom_school_name": "BEC Community School Zargi", "custom_district": "Ziarat", "custom_tehsil": "ZIARAT", "custom_division": "QUETTA", "custom_level": "Middle", "custom_gender": "Boys", "custom_students": 91, "custom_functional_status": "Functional", "custom_latitude": 30.3645, "custom_longitude": 67.7423, "gov_school_name": "GBPS KILLI AZAM MANA", "gov_level": "Primary", "gov_gender": "Boys", "gov_district": "Ziarat", "gov_tehsil": "ZIARAT", "gov_uc": "Spezandi", "gov_enrollment": 42, "distance_km": 2.78, "gov_latitude": 30.3867, "gov_longitude": 67.7556, "gov_schools_count": 19}, {"custom_school_name": "BEC Community School Zargi", "custom_district": "Ziarat", "custom_tehsil": "ZIARAT", "custom_division": "QUETTA", "custom_level": "Middle", "custom_gender": "Boys", "custom_students": 91, "custom_functional_status": "Functional", "custom_latitude": 30.3645, "custom_longitude": 67.7423, "gov_school_name": "GBMIDS SASSNAK MANA", "gov_level": "Middle", "gov_gender": "Boys", "gov_district": "Ziarat", "gov_tehsil": "ZIARAT", "gov_uc": "Manna", "gov_enrollment": 296, "distance_km": 2.84, "gov_latitude": 30.3827, "gov_longitude": 67.7215, "gov_schools_count": 19}, {"custom_school_name": "BEC Community School Zargi", "custom_district": "Ziarat", "custom_tehsil": "ZIARAT", "custom_division": "QUETTA", "custom_level": "Middle", "custom_gender": "Boys", "custom_students": 91, "custom_functional_status": "Functional", "custom_latitude": 30.3645, "custom_longitude": 67.7423, "gov_school_name": "GBHS SPAZUNDI", "gov_level": "High", "gov_gender": "Boys", "gov_district": "Ziarat", "gov_tehsil": "ZIARAT", "gov_uc": "Spezandi", "gov_enrollment": 389, "distance_km": 3.15, "gov_latitude": 30.3889, "gov_longitude": 67.7589, "gov_schools_count": 19}, {"custom_school_name": "BEC Community School Zargi", "custom_district": "Ziarat", "custom_tehsil": "ZIARAT", "custom_division": "QUETTA", "custom_level": "Middle", "custom_gender": "Boys", "custom_students": 91, "custom_functional_status": "Functional", "custom_latitude": 30.3645, "custom_longitude": 67.7423, "gov_school_name": "GBPS KILLI YAR MUHAMMAD SASSNAK MANA", "gov_level": "Primary", "gov_gender": "Boys", "gov_district": "Ziarat", "gov_tehsil": "ZIARAT", "gov_uc": "Manna", "gov_enrollment": 45, "distance_km": 3.19, "gov_latitude": 30.3856, "gov_longitude": 67.7198, "gov_schools_count": 19}, {"custom_school_name": "BEC Community School Zargi", "custom_district": "Ziarat", "custom_tehsil": "ZIARAT", "custom_division": "QUETTA", "custom_level": "Middle", "custom_gender": "Boys", "custom_students": 91, "custom_functional_status": "Functional", "custom_latitude": 30.3645, "custom_longitude": 67.7423, "gov_school_name": "GBPS GORISTEEN MANA", "gov_level": "Primary", "gov_gender": "Boys", "gov_district": "Ziarat", "gov_tehsil": "ZIARAT", "gov_uc": "Spezandi", "gov_enrollment": 46, "distance_km": 3.37, "gov_latitude": 30.3901, "gov_longitude": 67.7612, "gov_schools_count": 19}, {"custom_school_name": "BEC Community School Zargi", "custom_district": "Ziarat", "custom_tehsil": "ZIARAT", "custom_division": "QUETTA", "custom_level": "Middle", "custom_gender": "Boys", "custom_students": 91, "custom_functional_status": "Functional", "custom_latitude": 30.3645, "custom_longitude": 67.7423, "gov_school_name": "GGPS KHARY GUT MANA", "gov_level": "Primary", "gov_gender": "Girls", "gov_district": "Ziarat", "gov_tehsil": "ZIARAT", "gov_uc": "Spezandi", "gov_enrollment": 53, "distance_km": 3.4, "gov_latitude": 30.3903, "gov_longitude": 67.7614, "gov_schools_count": 19}, {"custom_school_name": "BEC Community School Zargi", "custom_district": "Ziarat", "custom_tehsil": "ZIARAT", "custom_division": "QUETTA", "custom_level": "Middle", "custom_gender": "Boys", "custom_students": 91, "custom_functional_status": "Functional", "custom_latitude": 30.3645, "custom_longitude": 67.7423, "gov_school_name": "GPS NARAI DAAG", "gov_level": "Primary", "gov_gender": "Girls", "gov_district": "Ziarat", "gov_tehsil": "ZIARAT", "gov_uc": "Spezandi", "gov_enrollment": 49, "distance_km": 3.53, "gov_latitude": 30.3912, "gov_longitude": 67.7623, "gov_schools_count": 19}, {"custom_school_name": "BEC Community School Zargi", "custom_district": "Ziarat", "custom_tehsil": "ZIARAT", "custom_division": "QUETTA", "custom_level": "Middle", "custom_gender": "Boys", "custom_students": 91, "custom_functional_status": "Functional", "custom_latitude": 30.3645, "custom_longitude": 67.7423, "gov_school_name": "GGPS AFZAL MANNA", "gov_level": "Primary", "gov_gender": "Girls", "gov_district": "Ziarat", "gov_tehsil": "ZIARAT", "gov_uc": "Spezandi", "gov_enrollment": 57, "distance_km": 3.69, "gov_latitude": 30.3923, "gov_longitude": 67.7634, "gov_schools_count": 19}, {"custom_school_name": "BEC Community School Zargi", "custom_district": "Ziarat", "custom_tehsil": "ZIARAT", "custom_division": "QUETTA", "custom_level": "Middle", "custom_gender": "Boys", "custom_students": 91, "custom_functional_status": "Functional", "custom_latitude": 30.3645, "custom_longitude": 67.7423, "gov_school_name": "GBPS KARHAHI LANDI SASNAK MANNA", "gov_level": "Primary", "gov_gender": "Boys", "gov_district": "Ziarat", "gov_tehsil": "ZIARAT", "gov_uc": "Manna", "gov_enrollment": 38, "distance_km": 4.09, "gov_latitude": 30.3932, "gov_longitude": 67.7156, "gov_schools_count": 19}, {"custom_school_name": "BEC Community School Zargi", "custom_district": "Ziarat", "custom_tehsil": "ZIARAT", "custom_division": "QUETTA", "custom_level": "Middle", "custom_gender": "Boys", "custom_students": 91, "custom_functional_status": "Functional", "custom_latitude": 30.3645, "custom_longitude": 67.7423, "gov_school_name": "GGMIDS SPAZUNDI", "gov_level": "Middle", "gov_gender": "Girls", "gov_district": "Ziarat", "gov_tehsil": "ZIARAT", "gov_uc": "Spezandi", "gov_enrollment": 178, "distance_km": 4.14, "gov_latitude": 30.3945, "gov_longitude": 67.7678, "gov_schools_count": 19}, {"custom_school_name": "BEC Community School Zargi", "custom_district": "Ziarat", "custom_tehsil": "ZIARAT", "custom_division": "QUETTA", "custom_level": "Middle", "custom_gender": "Boys", "custom_students": 91, "custom_functional_status": "Functional", "custom_latitude": 30.3645, "custom_longitude": 67.7423, "gov_school_name": "GBPS MULLA HOTAN", "gov_level": "Primary", "gov_gender": "Boys", "gov_district": "Ziarat", "gov_tehsil": "ZIARAT", "gov_uc": "Spezandi", "gov_enrollment": 40, "distance_km": 4.53, "gov_latitude": 30.3967, "gov_longitude": 67.7712, "gov_schools_count": 19}, {"custom_school_name": "NCS Killi Kawas", "custom_district": "Quetta", "custom_tehsil": "Quetta City", "custom_division": "QUETTA", "custom_level": "Primary", "custom_gender": "Boys", "custom_students": 156, "custom_functional_status": "Functional", "custom_latitude": 30.1867, "custom_longitude": 67.0189, "gov_school_name": "GGPS KAWAS", "gov_level": "Primary", "gov_gender": "Girls", "gov_district": "Quetta", "gov_tehsil": "Quetta City", "gov_uc": "Kawas", "gov_enrollment": 134, "distance_km": 0.16, "gov_latitude": 30.1856, "gov_longitude": 67.0178, "gov_schools_count": 5}, {"custom_school_name": "NCS Killi Kawas", "custom_district": "Quetta", "custom_tehsil": "Quetta City", "custom_division": "QUETTA", "custom_level": "Primary", "custom_gender": "Boys", "custom_students": 156, "custom_functional_status": "Functional", "custom_latitude": 30.1867, "custom_longitude": 67.0189, "gov_school_name": "GBMS KAWAS", "gov_level": "Middle", "gov_gender": "Boys", "gov_district": "Quetta", "gov_tehsil": "Quetta City", "gov_uc": "Kawas", "gov_enrollment": 245, "distance_km": 0.32, "gov_latitude": 30.1845, "gov_longitude": 67.0167, "gov_schools_count": 5}, {"custom_school_name": "NCS Killi Kawas", "custom_district": "Quetta", "custom_tehsil": "Quetta City", "custom_division": "QUETTA", "custom_level": "Primary", "custom_gender": "Boys", "custom_students": 156, "custom_functional_status": "Functional", "custom_latitude": 30.1867, "custom_longitude": 67.0189, "gov_school_name": "GBPS KAWAS", "gov_level": "Primary", "gov_gender": "Boys", "gov_district": "Quetta", "gov_tehsil": "Quetta City", "gov_uc": "Kawas", "gov_enrollment": 125, "distance_km": 0.49, "gov_latitude": 30.1834, "gov_longitude": 67.0156, "gov_schools_count": 5}, {"custom_school_name": "NCS Killi Kawas", "custom_district": "Quetta", "custom_tehsil": "Quetta City", "custom_division": "QUETTA", "custom_level": "Primary", "custom_gender": "Boys", "custom_students": 156, "custom_functional_status": "Functional", "custom_latitude": 30.1867, "custom_longitude": 67.0189, "gov_school_name": "GBHS SATELLITE TOWN", "gov_level": "High", "gov_gender": "Boys", "gov_district": "Quetta", "gov_tehsil": "Quetta City", "gov_uc": "Satellite Town", "gov_enrollment": 567, "distance_km": 1.88, "gov_latitude": 30.2012, "gov_longitude": 67.0289, "gov_schools_count": 5}, {"custom_school_name": "NCS Killi Kawas", "custom_district": "Quetta", "custom_tehsil": "Quetta City", "custom_division": "QUETTA", "custom_level": "Primary", "custom_gender": "Boys", "custom_students": 156, "custom_functional_status": "Functional", "custom_latitude": 30.1867, "custom_longitude": 67.0189, "gov_school_name": "GGHS SATELLITE TOWN", "gov_level": "High", "gov_gender": "Girls", "gov_district": "Quetta", "gov_tehsil": "Quetta City", "gov_uc": "Satellite Town", "gov_enrollment": 489, "distance_km": 2.03, "gov_latitude": 30.2023, "gov_longitude": 67.0298, "gov_schools_count": 5}, {"custom_school_name": "BEC Model School Satellite", "custom_district": "Quetta", "custom_tehsil": "Quetta City", "custom_division": "QUETTA", "custom_level": "Middle", "custom_gender": "Boys", "custom_students": 234, "custom_functional_status": "Functional", "custom_latitude": 30.2034, "custom_longitude": 67.0312, "gov_school_name": "GGHS SATELLITE TOWN", "gov_level": "High", "gov_gender": "Girls", "gov_district": "Quetta", "gov_tehsil": "Quetta City", "gov_uc": "Satellite Town", "gov_enrollment": 489, "distance_km": 0.18, "gov_latitude": 30.2023, "gov_longitude": 67.0298, "gov_schools_count": 5}, {"custom_school_name": "BEC Model School Satellite", "custom_district": "Quetta", "custom_tehsil": "Quetta City", "custom_division": "QUETTA", "custom_level": "Middle", "custom_gender": "Boys", "custom_students": 234, "custom_functional_status": "Functional", "custom_latitude": 30.2034, "custom_longitude": 67.0312, "gov_school_name": "GBHS SATELLITE TOWN", "gov_level": "High", "gov_gender": "Boys", "gov_district": "Quetta", "gov_tehsil": "Quetta City", "gov_uc": "Satellite Town", "gov_enrollment": 567, "distance_km": 0.33, "gov_latitude": 30.2012, "gov_longitude": 67.0289, "gov_schools_count": 5}, {"custom_school_name": "BEC Model School Satellite", "custom_district": "Quetta", "custom_tehsil": "Quetta City", "custom_division": "QUETTA", "custom_level": "Middle", "custom_gender": "Boys", "custom_students": 234, "custom_functional_status": "Functional", "custom_latitude": 30.2034, "custom_longitude": 67.0312, "gov_school_name": "GGPS KAWAS", "gov_level": "Primary", "gov_gender": "Girls", "gov_district": "Quetta", "gov_tehsil": "Quetta City", "gov_uc": "Kawas", "gov_enrollment": 134, "distance_km": 2.36, "gov_latitude": 30.1856, "gov_longitude": 67.0178, "gov_schools_count": 5}, {"custom_school_name": "BEC Model School Satellite", "custom_district": "Quetta", "custom_tehsil": "Quetta City", "custom_division": "QUETTA", "custom_level": "Middle", "custom_gender": "Boys", "custom_students": 234, "custom_functional_status": "Functional", "custom_latitude": 30.2034, "custom_longitude": 67.0312, "gov_school_name": "GBMS KAWAS", "gov_level": "Middle", "gov_gender": "Boys", "gov_district": "Quetta", "gov_tehsil": "Quetta City", "gov_uc": "Kawas", "gov_enrollment": 245, "distance_km": 2.52, "gov_latitude": 30.1845, "gov_longitude": 67.0167, "gov_schools_count": 5}, {"custom_school_name": "BEC Model School Satellite", "custom_district": "Quetta", "custom_tehsil": "Quetta City", "custom_division": "QUETTA", "custom_level": "Middle", "custom_gender": "Boys", "custom_students": 234, "custom_functional_status": "Functional", "custom_latitude": 30.2034, "custom_longitude": 67.0312, "gov_school_name": "GBPS KAWAS", "gov_level": "Primary", "gov_gender": "Boys", "gov_district": "Quetta", "gov_tehsil": "Quetta City", "gov_uc": "Kawas", "gov_enrollment": 125, "distance_km": 2.68, "gov_latitude": 30.1834, "gov_longitude": 67.0156, "gov_schools_count": 5}, {"custom_school_name": "NHCD Learning Center Manna", "custom_district": "Ziarat", "custom_tehsil": "ZIARAT", "custom_division": "QUETTA", "custom_level": "Primary", "custom_gender": "Girls", "custom_students": 67, "custom_functional_status": "Functional", "custom_latitude": 30.4101, "custom_longitude": 67.7234, "gov_school_name": "GBPS KILLI FAQIR ABAD MANA", "gov_level": "Primary", "gov_gender": "Boys", "gov_district": "Ziarat", "gov_tehsil": "ZIARAT", "gov_uc": "Manna", "gov_enrollment": 41, "distance_km": 1.53, "gov_latitude": 30.4025, "gov_longitude": 67.7101, "gov_schools_count": 24}, {"custom_school_name": "NHCD Learning Center Manna", "custom_district": "Ziarat", "custom_tehsil": "ZIARAT", "custom_division": "QUETTA", "custom_level": "Primary", "custom_gender": "Girls", "custom_students": 67, "custom_functional_status": "Functional", "custom_latitude": 30.4101, "custom_longitude": 67.7234, "gov_school_name": "GBMIDS SASSAN MANNA", "gov_level": "Middle", "gov_gender": "Boys", "gov_district": "Ziarat", "gov_tehsil": "ZIARAT", "gov_uc": "Manna", "gov_enrollment": 187, "distance_km": 1.57, "gov_latitude": 30.4023, "gov_longitude": 67.7098, "gov_schools_count": 24}, {"custom_school_name": "NHCD Learning Center Manna", "custom_district": "Ziarat", "custom_tehsil": "ZIARAT", "custom_division": "QUETTA", "custom_level": "Primary", "custom_gender": "Girls", "custom_students": 67, "custom_functional_status": "Functional", "custom_latitude": 30.4101, "custom_longitude": 67.7234, "gov_school_name": "GBPS SASAN MANNA SALEEM SAKHORI", "gov_level": "Primary", "gov_gender": "Boys", "gov_district": "Ziarat", "gov_tehsil": "ZIARAT", "gov_uc": "Manna", "gov_enrollment": 52, "distance_km": 1.71, "gov_latitude": 30.4012, "gov_longitude": 67.7089, "gov_schools_count": 24}, {"custom_school_name": "NHCD Learning Center Manna", "custom_district": "Ziarat", "custom_tehsil": "ZIARAT", "custom_division": "QUETTA", "custom_level": "Primary", "custom_gender": "Girls", "custom_students": 67, "custom_functional_status": "Functional", "custom_latitude": 30.4101, "custom_longitude": 67.7234, "gov_school_name": "GBPS SHARQUI SASSAN MANA", "gov_level": "Primary", "gov_gender": "Boys", "gov_district": "Ziarat", "gov_tehsil": "ZIARAT", "gov_uc": "Manna", "gov_enrollment": 67, "distance_km": 1.83, "gov_latitude": 30.4078, "gov_longitude": 67.7045, "gov_schools_count": 24}, {"custom_school_name": "NHCD Learning Center Manna", "custom_district": "Ziarat", "custom_tehsil": "ZIARAT", "custom_division": "QUETTA", "custom_level": "Primary", "custom_gender": "Girls", "custom_students": 67, "custom_functional_status": "Functional", "custom_latitude": 30.4101, "custom_longitude": 67.7234, "gov_school_name": "GBPS KARHAHI LANDI SASNAK MANNA", "gov_level": "Primary", "gov_gender": "Boys", "gov_district": "Ziarat", "gov_tehsil": "ZIARAT", "gov_uc": "Manna", "gov_enrollment": 38, "distance_km": 2.02, "gov_latitude": 30.3932, "gov_longitude": 67.7156, "gov_schools_count": 24}, {"custom_school_name": "NHCD Learning Center Manna", "custom_district": "Ziarat", "custom_tehsil": "ZIARAT", "custom_division": "QUETTA", "custom_level": "Primary", "custom_gender": "Girls", "custom_students": 67, "custom_functional_status": "Functional", "custom_latitude": 30.4101, "custom_longitude": 67.7234, "gov_school_name": "GBPS KILLI YAR MUHAMMAD SASSNAK MANA", "gov_level": "Primary", "gov_gender": "Boys", "gov_district": "Ziarat", "gov_tehsil": "ZIARAT", "gov_uc": "Manna", "gov_enrollment": 45, "distance_km": 2.75, "gov_latitude": 30.3856, "gov_longitude": 67.7198, "gov_schools_count": 24}, {"custom_school_name": "NHCD Learning Center Manna", "custom_district": "Ziarat", "custom_tehsil": "ZIARAT", "custom_division": "QUETTA", "custom_level": "Primary", "custom_gender": "Girls", "custom_students": 67, "custom_functional_status": "Functional", "custom_latitude": 30.4101, "custom_longitude": 67.7234, "gov_school_name": "GBMIDS SASSNAK MANA", "gov_level": "Middle", "gov_gender": "Boys", "gov_district": "Ziarat", "gov_tehsil": "ZIARAT", "gov_uc": "Manna", "gov_enrollment": 296, "distance_km": 3.05, "gov_latitude": 30.3827, "gov_longitude": 67.7215, "gov_schools_count": 24}, {"custom_school_name": "NHCD Learning Center Manna", "custom_district": "Ziarat", "custom_tehsil": "ZIARAT", "custom_division": "QUETTA", "custom_level": "Primary", "custom_gender": "Girls", "custom_students": 67, "custom_functional_status": "Functional", "custom_latitude": 30.4101, "custom_longitude": 67.7234, "gov_school_name": "GBPS WASTI SPAZUNDI", "gov_level": "Primary", "gov_gender": "Boys", "gov_district": "Ziarat", "gov_tehsil": "ZIARAT", "gov_uc": "Spezandi", "gov_enrollment": 44, "distance_km": 3.39, "gov_latitude": 30.3812, "gov_longitude": 67.7345, "gov_schools_count": 24}, {"custom_school_name": "NHCD Learning Center Manna", "custom_district": "Ziarat", "custom_tehsil": "ZIARAT", "custom_division": "QUETTA", "custom_level": "Primary", "custom_gender": "Girls", "custom_students": 67, "custom_functional_status": "Functional", "custom_latitude": 30.4101, "custom_longitude": 67.7234, "gov_school_name": "GBPS MULLA ABAD MALIKAT", "gov_level": "Primary", "gov_gender": "Boys", "gov_district": "Ziarat", "gov_tehsil": "ZIARAT", "gov_uc": "Manna", "gov_enrollment": 33, "distance_km": 3.42, "gov_latitude": 30.4234, "gov_longitude": 67.6912, "gov_schools_count": 24}, {"custom_school_name": "NHCD Learning Center Manna", "custom_district": "Ziarat", "custom_tehsil": "ZIARAT", "custom_division": "QUETTA", "custom_level": "Primary", "custom_gender": "Girls", "custom_students": 67, "custom_functional_status": "Functional", "custom_latitude": 30.4101, "custom_longitude": 67.7234, "gov_school_name": "GBPS SOORY MANA", "gov_level": "Primary", "gov_gender": "Boys", "gov_district": "Ziarat", "gov_tehsil": "ZIARAT", "gov_uc": "Manna", "gov_enrollment": 29, "distance_km": 3.44, "gov_latitude": 30.4236, "gov_longitude": 67.6911, "gov_schools_count": 24}, {"custom_school_name": "NHCD Learning Center Manna", "custom_district": "Ziarat", "custom_tehsil": "ZIARAT", "custom_division": "QUETTA", "custom_level": "Primary", "custom_gender": "Girls", "custom_students": 67, "custom_functional_status": "Functional", "custom_latitude": 30.4101, "custom_longitude": 67.7234, "gov_school_name": "GBPS DAWAT MANA", "gov_level": "Primary", "gov_gender": "Boys", "gov_district": "Ziarat", "gov_tehsil": "ZIARAT", "gov_uc": "Spezandi", "gov_enrollment": 39, "distance_km": 3.63, "gov_latitude": 30.3778, "gov_longitude": 67.7289, "gov_schools_count": 24}, {"custom_school_name": "NHCD Learning Center Manna", "custom_district": "Ziarat", "custom_tehsil": "ZIARAT", "custom_division": "QUETTA", "custom_level": "Primary", "custom_gender": "Girls", "custom_students": 67, "custom_functional_status": "Functional", "custom_latitude": 30.4101, "custom_longitude": 67.7234, "gov_school_name": "GBPS GHARAT MANA", "gov_level": "Primary", "gov_gender": "Boys", "gov_district": "Ziarat", "gov_tehsil": "ZIARAT", "gov_uc": "Manna", "gov_enrollment": 55, "distance_km": 3.83, "gov_latitude": 30.4258, "gov_longitude": 67.6878, "gov_schools_count": 24}, {"custom_school_name": "NHCD Learning Center Manna", "custom_district": "Ziarat", "custom_tehsil": "ZIARAT", "custom_division": "QUETTA", "custom_level": "Primary", "custom_gender": "Girls", "custom_students": 67, "custom_functional_status": "Functional", "custom_latitude": 30.4101, "custom_longitude": 67.7234, "gov_school_name": "GGMIDS SHARQI ZARGAI", "gov_level": "Middle", "gov_gender": "Girls", "gov_district": "Ziarat", "gov_tehsil": "ZIARAT", "gov_uc": "Spezandi", "gov_enrollment": 156, "distance_km": 3.92, "gov_latitude": 30.3834, "gov_longitude": 67.7501, "gov_schools_count": 24}, {"custom_school_name": "NHCD Learning Center Manna", "custom_district": "Ziarat", "custom_tehsil": "ZIARAT", "custom_division": "QUETTA", "custom_level": "Primary", "custom_gender": "Girls", "custom_students": 67, "custom_functional_status": "Functional", "custom_latitude": 30.4101, "custom_longitude": 67.7234, "gov_school_name": "GBPS LUNDI SPINZANDI", "gov_level": "Primary", "gov_gender": "Boys", "gov_district": "Ziarat", "gov_tehsil": "ZIARAT", "gov_uc": "Spezandi", "gov_enrollment": 37, "distance_km": 3.96, "gov_latitude": 30.3856, "gov_longitude": 67.7534, "gov_schools_count": 24}, {"custom_school_name": "NHCD Learning Center Manna", "custom_district": "Ziarat", "custom_tehsil": "ZIARAT", "custom_division": "QUETTA", "custom_level": "Primary", "custom_gender": "Girls", "custom_students": 67, "custom_functional_status": "Functional", "custom_latitude": 30.4101, "custom_longitude": 67.7234, "gov_school_name": "GBPS KILLI AZAM MANA", "gov_level": "Primary", "gov_gender": "Boys", "gov_district": "Ziarat", "gov_tehsil": "ZIARAT", "gov_uc": "Spezandi", "gov_enrollment": 42, "distance_km": 4.04, "gov_latitude": 30.3867, "gov_longitude": 67.7556, "gov_schools_count": 24}, {"custom_school_name": "NHCD Learning Center Manna", "custom_district": "Ziarat", "custom_tehsil": "ZIARAT", "custom_division": "QUETTA", "custom_level": "Primary", "custom_gender": "Girls", "custom_students": 67, "custom_functional_status": "Functional", "custom_latitude": 30.4101, "custom_longitude": 67.7234, "gov_school_name": "GBHS SPAZUNDI", "gov_level": "High", "gov_gender": "Boys", "gov_district": "Ziarat", "gov_tehsil": "ZIARAT", "gov_uc": "Spezandi", "gov_enrollment": 389, "distance_km": 4.14, "gov_latitude": 30.3889, "gov_longitude": 67.7589, "gov_schools_count": 24}, {"custom_school_name": "NHCD Learning Center Manna", "custom_district": "Ziarat", "custom_tehsil": "ZIARAT", "custom_division": "QUETTA", "custom_level": "Primary", "custom_gender": "Girls", "custom_students": 67, "custom_functional_status": "Functional", "custom_latitude": 30.4101, "custom_longitude": 67.7234, "gov_school_name": "GBPS GORISTEEN MANA", "gov_level": "Primary", "gov_gender": "Boys", "gov_district": "Ziarat", "gov_tehsil": "ZIARAT", "gov_uc": "Spezandi", "gov_enrollment": 46, "distance_km": 4.25, "gov_latitude": 30.3901, "gov_longitude": 67.7612, "gov_schools_count": 24}, {"custom_school_name": "NHCD Learning Center Manna", "custom_district": "Ziarat", "custom_tehsil": "ZIARAT", "custom_division": "QUETTA", "custom_level": "Primary", "custom_gender": "Girls", "custom_students": 67, "custom_functional_status": "Functional", "custom_latitude": 30.4101, "custom_longitude": 67.7234, "gov_school_name": "GGPS KHARY GUT MANA", "gov_level": "Primary", "gov_gender": "Girls", "gov_district": "Ziarat", "gov_tehsil": "ZIARAT", "gov_uc": "Spezandi", "gov_enrollment": 53, "distance_km": 4.26, "gov_latitude": 30.3903, "gov_longitude": 67.7614, "gov_schools_count": 24}, {"custom_school_name": "NHCD Learning Center Manna", "custom_district": "Ziarat", "custom_tehsil": "ZIARAT", "custom_division": "QUETTA", "custom_level": "Primary", "custom_gender": "Girls", "custom_students": 67, "custom_functional_status": "Functional", "custom_latitude": 30.4101, "custom_longitude": 67.7234, "gov_school_name": "GPS NARAI DAAG", "gov_level": "Primary", "gov_gender": "Girls", "gov_district": "Ziarat", "gov_tehsil": "ZIARAT", "gov_uc": "Spezandi", "gov_enrollment": 49, "distance_km": 4.28, "gov_latitude": 30.3912, "gov_longitude": 67.7623, "gov_schools_count": 24}, {"custom_school_name": "NHCD Learning Center Manna", "custom_district": "Ziarat", "custom_tehsil": "ZIARAT", "custom_division": "QUETTA", "custom_level": "Primary", "custom_gender": "Girls", "custom_students": 67, "custom_functional_status": "Functional", "custom_latitude": 30.4101, "custom_longitude": 67.7234, "gov_school_name": "GGPS AFZAL MANNA", "gov_level": "Primary", "gov_gender": "Girls", "gov_district": "Ziarat", "gov_tehsil": "ZIARAT", "gov_uc": "Spezandi", "gov_enrollment": 57, "distance_km": 4.32, "gov_latitude": 30.3923, "gov_longitude": 67.7634, "gov_schools_count": 24}, {"custom_school_name": "NHCD Learning Center Manna", "custom_district": "Ziarat", "custom_tehsil": "ZIARAT", "custom_division": "QUETTA", "custom_level": "Primary", "custom_gender": "Girls", "custom_students": 67, "custom_functional_status": "Functional", "custom_latitude": 30.4101, "custom_longitude": 67.7234, "gov_school_name": "GBHS MANNA", "gov_level": "High", "gov_gender": "Boys", "gov_district": "Ziarat", "gov_tehsil": "ZIARAT", "gov_uc": "Manna", "gov_enrollment": 423, "distance_km": 4.37, "gov_latitude": 30.4289, "gov_longitude": 67.6834, "gov_schools_count": 24}, {"custom_school_name": "NHCD Learning Center Manna", "custom_district": "Ziarat", "custom_tehsil": "ZIARAT", "custom_division": "QUETTA", "custom_level": "Primary", "custom_gender": "Girls", "custom_students": 67, "custom_functional_status": "Functional", "custom_latitude": 30.4101, "custom_longitude": 67.7234, "gov_school_name": "GGMIDS SPAZUNDI", "gov_level": "Middle", "gov_gender": "Girls", "gov_district": "Ziarat", "gov_tehsil": "ZIARAT", "gov_uc": "Spezandi", "gov_enrollment": 178, "distance_km": 4.6, "gov_latitude": 30.3945, "gov_longitude": 67.7678, "gov_schools_count": 24}, {"custom_school_name": "NHCD Learning Center Manna", "custom_district": "Ziarat", "custom_tehsil": "ZIARAT", "custom_division": "QUETTA", "custom_level": "Primary", "custom_gender": "Girls", "custom_students": 67, "custom_functional_status": "Functional", "custom_latitude": 30.4101, "custom_longitude": 67.7234, "gov_school_name": "GGHS ZARGI KILLI ABDULLAH JAN", "gov_level": "High", "gov_gender": "Girls", "gov_district": "Ziarat", "gov_tehsil": "ZIARAT", "gov_uc": "Spezandi", "gov_enrollment": 234, "distance_km": 4.76, "gov_latitude": 30.3723, "gov_longitude": 67.7467, "gov_schools_count": 24}, {"custom_school_name": "NHCD Learning Center Manna", "custom_district": "Ziarat", "custom_tehsil": "ZIARAT", "custom_division": "QUETTA", "custom_level": "Primary", "custom_gender": "Girls", "custom_students": 67, "custom_functional_status": "Functional", "custom_latitude": 30.4101, "custom_longitude": 67.7234, "gov_school_name": "GBPS MULLA HOTAN", "gov_level": "Primary", "gov_gender": "Boys", "gov_district": "Ziarat", "gov_tehsil": "ZIARAT", "gov_uc": "Spezandi", "gov_enrollment": 40, "distance_km": 4.82, "gov_latitude": 30.3967, "gov_longitude": 67.7712, "gov_schools_count": 24}, {"custom_school_name": "NHCD Community School Spezandi", "custom_district": "Ziarat", "custom_tehsil": "ZIARAT", "custom_division": "QUETTA", "custom_level": "Primary", "custom_gender": "Boys", "custom_students": 89, "custom_functional_status": "Functional", "custom_latitude": 30.3712, "custom_longitude": 67.7501, "gov_school_name": "GGHS ZARGI KILLI ABDULLAH JAN", "gov_level": "High", "gov_gender": "Girls", "gov_district": "Ziarat", "gov_tehsil": "ZIARAT", "gov_uc": "Spezandi", "gov_enrollment": 234, "distance_km": 0.35, "gov_latitude": 30.3723, "gov_longitude": 67.7467, "gov_schools_count": 19}, {"custom_school_name": "NHCD Community School Spezandi", "custom_district": "Ziarat", "custom_tehsil": "ZIARAT", "custom_division": "QUETTA", "custom_level": "Primary", "custom_gender": "Boys", "custom_students": 89, "custom_functional_status": "Functional", "custom_latitude": 30.3712, "custom_longitude": 67.7501, "gov_school_name": "GBPS SHARQI ZARGI", "gov_level": "Primary", "gov_gender": "Boys", "gov_district": "Ziarat", "gov_tehsil": "ZIARAT", "gov_uc": "Spezandi", "gov_enrollment": 48, "distance_km": 0.82, "gov_latitude": 30.3673, "gov_longitude": 67.7428, "gov_schools_count": 19}, {"custom_school_name": "NHCD Community School Spezandi", "custom_district": "Ziarat", "custom_tehsil": "ZIARAT", "custom_division": "QUETTA", "custom_level": "Primary", "custom_gender": "Boys", "custom_students": 89, "custom_functional_status": "Functional", "custom_latitude": 30.3712, "custom_longitude": 67.7501, "gov_school_name": "GBPS ZEREEN SPAZUNDI", "gov_level": "Primary", "gov_gender": "Boys", "gov_district": "Ziarat", "gov_tehsil": "ZIARAT", "gov_uc": "Spezandi", "gov_enrollment": 51, "distance_km": 0.94, "gov_latitude": 30.3665, "gov_longitude": 67.7419, "gov_schools_count": 19}, {"custom_school_name": "NHCD Community School Spezandi", "custom_district": "Ziarat", "custom_tehsil": "ZIARAT", "custom_division": "QUETTA", "custom_level": "Primary", "custom_gender": "Boys", "custom_students": 89, "custom_functional_status": "Functional", "custom_latitude": 30.3712, "custom_longitude": 67.7501, "gov_school_name": "GBMIDS ZARGI", "gov_level": "Middle", "gov_gender": "Boys", "gov_district": "Ziarat", "gov_tehsil": "ZIARAT", "gov_uc": "Spezandi", "gov_enrollment": 167, "distance_km": 1.06, "gov_latitude": 30.3645, "gov_longitude": 67.7423, "gov_schools_count": 19}, {"custom_school_name": "NHCD Community School Spezandi", "custom_district": "Ziarat", "custom_tehsil": "ZIARAT", "custom_division": "QUETTA", "custom_level": "Primary", "custom_gender": "Boys", "custom_students": 89, "custom_functional_status": "Functional", "custom_latitude": 30.3712, "custom_longitude": 67.7501, "gov_school_name": "GGMIDS SHARQI ZARGAI", "gov_level": "Middle", "gov_gender": "Girls", "gov_district": "Ziarat", "gov_tehsil": "ZIARAT", "gov_uc": "Spezandi", "gov_enrollment": 156, "distance_km": 1.36, "gov_latitude": 30.3834, "gov_longitude": 67.7501, "gov_schools_count": 19}, {"custom_school_name": "NHCD Community School Spezandi", "custom_district": "Ziarat", "custom_tehsil": "ZIARAT", "custom_division": "QUETTA", "custom_level": "Primary", "custom_gender": "Boys", "custom_students": 89, "custom_functional_status": "Functional", "custom_latitude": 30.3712, "custom_longitude": 67.7501, "gov_school_name": "GBPS LUNDI SPINZANDI", "gov_level": "Primary", "gov_gender": "Boys", "gov_district": "Ziarat", "gov_tehsil": "ZIARAT", "gov_uc": "Spezandi", "gov_enrollment": 37, "distance_km": 1.63, "gov_latitude": 30.3856, "gov_longitude": 67.7534, "gov_schools_count": 19}, {"custom_school_name": "NHCD Community School Spezandi", "custom_district": "Ziarat", "custom_tehsil": "ZIARAT", "custom_division": "QUETTA", "custom_level": "Primary", "custom_gender": "Boys", "custom_students": 89, "custom_functional_status": "Functional", "custom_latitude": 30.3712, "custom_longitude": 67.7501, "gov_school_name": "GBPS KILLI AZAM MANA", "gov_level": "Primary", "gov_gender": "Boys", "gov_district": "Ziarat", "gov_tehsil": "ZIARAT", "gov_uc": "Spezandi", "gov_enrollment": 42, "distance_km": 1.8, "gov_latitude": 30.3867, "gov_longitude": 67.7556, "gov_schools_count": 19}, {"custom_school_name": "NHCD Community School Spezandi", "custom_district": "Ziarat", "custom_tehsil": "ZIARAT", "custom_division": "QUETTA", "custom_level": "Primary", "custom_gender": "Boys", "custom_students": 89, "custom_functional_status": "Functional", "custom_latitude": 30.3712, "custom_longitude": 67.7501, "gov_school_name": "GBPS WASTI SPAZUNDI", "gov_level": "Primary", "gov_gender": "Boys", "gov_district": "Ziarat", "gov_tehsil": "ZIARAT", "gov_uc": "Spezandi", "gov_enrollment": 44, "distance_km": 1.86, "gov_latitude": 30.3812, "gov_longitude": 67.7345, "gov_schools_count": 19}, {"custom_school_name": "NHCD Community School Spezandi", "custom_district": "Ziarat", "custom_tehsil": "ZIARAT", "custom_division": "QUETTA", "custom_level": "Primary", "custom_gender": "Boys", "custom_students": 89, "custom_functional_status": "Functional", "custom_latitude": 30.3712, "custom_longitude": 67.7501, "gov_school_name": "GBHS SPAZUNDI", "gov_level": "High", "gov_gender": "Boys", "gov_district": "Ziarat", "gov_tehsil": "ZIARAT", "gov_uc": "Spezandi", "gov_enrollment": 389, "distance_km": 2.14, "gov_latitude": 30.3889, "gov_longitude": 67.7589, "gov_schools_count": 19}, {"custom_school_name": "NHCD Community School Spezandi", "custom_district": "Ziarat", "custom_tehsil": "ZIARAT", "custom_division": "QUETTA", "custom_level": "Primary", "custom_gender": "Boys", "custom_students": 89, "custom_functional_status": "Functional", "custom_latitude": 30.3712, "custom_longitude": 67.7501, "gov_school_name": "GBPS DAWAT MANA", "gov_level": "Primary", "gov_gender": "Boys", "gov_district": "Ziarat", "gov_tehsil": "ZIARAT", "gov_uc": "Spezandi", "gov_enrollment": 39, "distance_km": 2.16, "gov_latitude": 30.3778, "gov_longitude": 67.7289, "gov_schools_count": 19}, {"custom_school_name": "NHCD Community School Spezandi", "custom_district": "Ziarat", "custom_tehsil": "ZIARAT", "custom_division": "QUETTA", "custom_level": "Primary", "custom_gender": "Boys", "custom_students": 89, "custom_functional_status": "Functional", "custom_latitude": 30.3712, "custom_longitude": 67.7501, "gov_school_name": "GBPS GORISTEEN MANA", "gov_level": "Primary", "gov_gender": "Boys", "gov_district": "Ziarat", "gov_tehsil": "ZIARAT", "gov_uc": "Spezandi", "gov_enrollment": 46, "distance_km": 2.36, "gov_latitude": 30.3901, "gov_longitude": 67.7612, "gov_schools_count": 19}, {"custom_school_name": "NHCD Community School Spezandi", "custom_district": "Ziarat", "custom_tehsil": "ZIARAT", "custom_division": "QUETTA", "custom_level": "Primary", "custom_gender": "Boys", "custom_students": 89, "custom_functional_status": "Functional", "custom_latitude": 30.3712, "custom_longitude": 67.7501, "gov_school_name": "GGPS KHARY GUT MANA", "gov_level": "Primary", "gov_gender": "Girls", "gov_district": "Ziarat", "gov_tehsil": "ZIARAT", "gov_uc": "Spezandi", "gov_enrollment": 53, "distance_km": 2.38, "gov_latitude": 30.3903, "gov_longitude": 67.7614, "gov_schools_count": 19}, {"custom_school_name": "NHCD Community School Spezandi", "custom_district": "Ziarat", "custom_tehsil": "ZIARAT", "custom_division": "QUETTA", "custom_level": "Primary", "custom_gender": "Boys", "custom_students": 89, "custom_functional_status": "Functional", "custom_latitude": 30.3712, "custom_longitude": 67.7501, "gov_school_name": "GPS NARAI DAAG", "gov_level": "Primary", "gov_gender": "Girls", "gov_district": "Ziarat", "gov_tehsil": "ZIARAT", "gov_uc": "Spezandi", "gov_enrollment": 49, "distance_km": 2.51, "gov_latitude": 30.3912, "gov_longitude": 67.7623, "gov_schools_count": 19}, {"custom_school_name": "NHCD Community School Spezandi", "custom_district": "Ziarat", "custom_tehsil": "ZIARAT", "custom_division": "QUETTA", "custom_level": "Primary", "custom_gender": "Boys", "custom_students": 89, "custom_functional_status": "Functional", "custom_latitude": 30.3712, "custom_longitude": 67.7501, "gov_school_name": "GGPS AFZAL MANNA", "gov_level": "Primary", "gov_gender": "Girls", "gov_district": "Ziarat", "gov_tehsil": "ZIARAT", "gov_uc": "Spezandi", "gov_enrollment": 57, "distance_km": 2.67, "gov_latitude": 30.3923, "gov_longitude": 67.7634, "gov_schools_count": 19}, {"custom_school_name": "NHCD Community School Spezandi", "custom_district": "Ziarat", "custom_tehsil": "ZIARAT", "custom_division": "QUETTA", "custom_level": "Primary", "custom_gender": "Boys", "custom_students": 89, "custom_functional_status": "Functional", "custom_latitude": 30.3712, "custom_longitude": 67.7501, "gov_school_name": "GBMIDS SASSNAK MANA", "gov_level": "Middle", "gov_gender": "Boys", "gov_district": "Ziarat", "gov_tehsil": "ZIARAT", "gov_uc": "Manna", "gov_enrollment": 296, "distance_km": 3.03, "gov_latitude": 30.3827, "gov_longitude": 67.7215, "gov_schools_count": 19}, {"custom_school_name": "NHCD Community School Spezandi", "custom_district": "Ziarat", "custom_tehsil": "ZIARAT", "custom_division": "QUETTA", "custom_level": "Primary", "custom_gender": "Boys", "custom_students": 89, "custom_functional_status": "Functional", "custom_latitude": 30.3712, "custom_longitude": 67.7501, "gov_school_name": "GGMIDS SPAZUNDI", "gov_level": "Middle", "gov_gender": "Girls", "gov_district": "Ziarat", "gov_tehsil": "ZIARAT", "gov_uc": "Spezandi", "gov_enrollment": 178, "distance_km": 3.1, "gov_latitude": 30.3945, "gov_longitude": 67.7678, "gov_schools_count": 19}, {"custom_school_name": "NHCD Community School Spezandi", "custom_district": "Ziarat", "custom_tehsil": "ZIARAT", "custom_division": "QUETTA", "custom_level": "Primary", "custom_gender": "Boys", "custom_students": 89, "custom_functional_status": "Functional", "custom_latitude": 30.3712, "custom_longitude": 67.7501, "gov_school_name": "GBPS KILLI YAR MUHAMMAD SASSNAK MANA", "gov_level": "Primary", "gov_gender": "Boys", "gov_district": "Ziarat", "gov_tehsil": "ZIARAT", "gov_uc": "Manna", "gov_enrollment": 45, "distance_km": 3.32, "gov_latitude": 30.3856, "gov_longitude": 67.7198, "gov_schools_count": 19}, {"custom_school_name": "NHCD Community School Spezandi", "custom_district": "Ziarat", "custom_tehsil": "ZIARAT", "custom_division": "QUETTA", "custom_level": "Primary", "custom_gender": "Boys", "custom_students": 89, "custom_functional_status": "Functional", "custom_latitude": 30.3712, "custom_longitude": 67.7501, "gov_school_name": "GBPS MULLA HOTAN", "gov_level": "Primary", "gov_gender": "Boys", "gov_district": "Ziarat", "gov_tehsil": "ZIARAT", "gov_uc": "Spezandi", "gov_enrollment": 40, "distance_km": 3.48, "gov_latitude": 30.3967, "gov_longitude": 67.7712, "gov_schools_count": 19}, {"custom_school_name": "NHCD Community School Spezandi", "custom_district": "Ziarat", "custom_tehsil": "ZIARAT", "custom_division": "QUETTA", "custom_level": "Primary", "custom_gender": "Boys", "custom_students": 89, "custom_functional_status": "Functional", "custom_latitude": 30.3712, "custom_longitude": 67.7501, "gov_school_name": "GBPS KARHAHI LANDI SASNAK MANNA", "gov_level": "Primary", "gov_gender": "Boys", "gov_district": "Ziarat", "gov_tehsil": "ZIARAT", "gov_uc": "Manna", "gov_enrollment": 38, "distance_km": 4.12, "gov_latitude": 30.3932, "gov_longitude": 67.7156, "gov_schools_count": 19}, {"custom_school_name": "NHCD Girls School Khanozai", "custom_district": "Pishin", "custom_tehsil": "Pishin", "custom_division": "QUETTA", "custom_level": "Middle", "custom_gender": "Girls", "custom_students": 123, "custom_functional_status": "Functional", "custom_latitude": 30.5734, "custom_longitude": 66.8978, "gov_school_name": "GBHS KHANOZAI", "gov_level": "High", "gov_gender": "Boys", "gov_district": "Pishin", "gov_tehsil": "Pishin", "gov_uc": "Khanozai", "gov_enrollment": 456, "distance_km": 0.4, "gov_latitude": 30.5712, "gov_longitude": 66.8945, "gov_schools_count": 4}, {"custom_school_name": "NHCD Girls School Khanozai", "custom_district": "Pishin", "custom_tehsil": "Pishin", "custom_division": "QUETTA", "custom_level": "Middle", "custom_gender": "Girls", "custom_students": 123, "custom_functional_status": "Functional", "custom_latitude": 30.5734, "custom_longitude": 66.8978, "gov_school_name": "GGPS KHANOZAI", "gov_level": "Primary", "gov_gender": "Girls", "gov_district": "Pishin", "gov_tehsil": "Pishin", "gov_uc": "Khanozai", "gov_enrollment": 89, "distance_km": 0.56, "gov_latitude": 30.5701, "gov_longitude": 66.8934, "gov_schools_count": 4}, {"custom_school_name": "NHCD Girls School Khanozai", "custom_district": "Pishin", "custom_tehsil": "Pishin", "custom_division": "QUETTA", "custom_level": "Middle", "custom_gender": "Girls", "custom_students": 123, "custom_functional_status": "Functional", "custom_latitude": 30.5734, "custom_longitude": 66.8978, "gov_school_name": "GBMS KHANOZAI", "gov_level": "Middle", "gov_gender": "Boys", "gov_district": "Pishin", "gov_tehsil": "Pishin", "gov_uc": "Khanozai", "gov_enrollment": 198, "distance_km": 0.73, "gov_latitude": 30.5689, "gov_longitude": 66.8923, "gov_schools_count": 4}, {"custom_school_name": "NHCD Girls School Khanozai", "custom_district": "Pishin", "custom_tehsil": "Pishin", "custom_division": "QUETTA", "custom_level": "Middle", "custom_gender": "Girls", "custom_students": 123, "custom_functional_status": "Functional", "custom_latitude": 30.5734, "custom_longitude": 66.8978, "gov_school_name": "GBPS KILLI SHAHWANI", "gov_level": "Primary", "gov_gender": "Boys", "gov_district": "Pishin", "gov_tehsil": "Pishin", "gov_uc": "Khanozai", "gov_enrollment": 78, "distance_km": 0.89, "gov_latitude": 30.5678, "gov_longitude": 66.8912, "gov_schools_count": 4}, {"custom_school_name": "CS Goth Faqir Manna", "custom_district": "Ziarat", "custom_tehsil": "ZIARAT", "custom_division": "QUETTA", "custom_level": "High", "custom_gender": "Boys", "custom_students": 289, "custom_functional_status": "Functional", "custom_latitude": 30.4145, "custom_longitude": 67.7123, "gov_school_name": "GBPS SHARQUI SASSAN MANA", "gov_level": "Primary", "gov_gender": "Boys", "gov_district": "Ziarat", "gov_tehsil": "ZIARAT", "gov_uc": "Manna", "gov_enrollment": 67, "distance_km": 1.06, "gov_latitude": 30.4078, "gov_longitude": 67.7045, "gov_schools_count": 13}, {"custom_school_name": "CS Goth Faqir Manna", "custom_district": "Ziarat", "custom_tehsil": "ZIARAT", "custom_division": "QUETTA", "custom_level": "High", "custom_gender": "Boys", "custom_students": 289, "custom_functional_status": "Functional", "custom_latitude": 30.4145, "custom_longitude": 67.7123, "gov_school_name": "GBPS KILLI FAQIR ABAD MANA", "gov_level": "Primary", "gov_gender": "Boys", "gov_district": "Ziarat", "gov_tehsil": "ZIARAT", "gov_uc": "Manna", "gov_enrollment": 41, "distance_km": 1.35, "gov_latitude": 30.4025, "gov_longitude": 67.7101, "gov_schools_count": 13}, {"custom_school_name": "CS Goth Faqir Manna", "custom_district": "Ziarat", "custom_tehsil": "ZIARAT", "custom_division": "QUETTA", "custom_level": "High", "custom_gender": "Boys", "custom_students": 289, "custom_functional_status": "Functional", "custom_latitude": 30.4145, "custom_longitude": 67.7123, "gov_school_name": "GBMIDS SASSAN MANNA", "gov_level": "Middle", "gov_gender": "Boys", "gov_district": "Ziarat", "gov_tehsil": "ZIARAT", "gov_uc": "Manna", "gov_enrollment": 187, "distance_km": 1.38, "gov_latitude": 30.4023, "gov_longitude": 67.7098, "gov_schools_count": 13}, {"custom_school_name": "CS Goth Faqir Manna", "custom_district": "Ziarat", "custom_tehsil": "ZIARAT", "custom_division": "QUETTA", "custom_level": "High", "custom_gender": "Boys", "custom_students": 289, "custom_functional_status": "Functional", "custom_latitude": 30.4145, "custom_longitude": 67.7123, "gov_school_name": "GBPS SASAN MANNA SALEEM SAKHORI", "gov_level": "Primary", "gov_gender": "Boys", "gov_district": "Ziarat", "gov_tehsil": "ZIARAT", "gov_uc": "Manna", "gov_enrollment": 52, "distance_km": 1.51, "gov_latitude": 30.4012, "gov_longitude": 67.7089, "gov_schools_count": 13}, {"custom_school_name": "CS Goth Faqir Manna", "custom_district": "Ziarat", "custom_tehsil": "ZIARAT", "custom_division": "QUETTA", "custom_level": "High", "custom_gender": "Boys", "custom_students": 289, "custom_functional_status": "Functional", "custom_latitude": 30.4145, "custom_longitude": 67.7123, "gov_school_name": "GBPS MULLA ABAD MALIKAT", "gov_level": "Primary", "gov_gender": "Boys", "gov_district": "Ziarat", "gov_tehsil": "ZIARAT", "gov_uc": "Manna", "gov_enrollment": 33, "distance_km": 2.25, "gov_latitude": 30.4234, "gov_longitude": 67.6912, "gov_schools_count": 13}, {"custom_school_name": "CS Goth Faqir Manna", "custom_district": "Ziarat", "custom_tehsil": "ZIARAT", "custom_division": "QUETTA", "custom_level": "High", "custom_gender": "Boys", "custom_students": 289, "custom_functional_status": "Functional", "custom_latitude": 30.4145, "custom_longitude": 67.7123, "gov_school_name": "GBPS SOORY MANA", "gov_level": "Primary", "gov_gender": "Boys", "gov_district": "Ziarat", "gov_tehsil": "ZIARAT", "gov_uc": "Manna", "gov_enrollment": 29, "distance_km": 2.27, "gov_latitude": 30.4236, "gov_longitude": 67.6911, "gov_schools_count": 13}, {"custom_school_name": "CS Goth Faqir Manna", "custom_district": "Ziarat", "custom_tehsil": "ZIARAT", "custom_division": "QUETTA", "custom_level": "High", "custom_gender": "Boys", "custom_students": 289, "custom_functional_status": "Functional", "custom_latitude": 30.4145, "custom_longitude": 67.7123, "gov_school_name": "GBPS KARHAHI LANDI SASNAK MANNA", "gov_level": "Primary", "gov_gender": "Boys", "gov_district": "Ziarat", "gov_tehsil": "ZIARAT", "gov_uc": "Manna", "gov_enrollment": 38, "distance_km": 2.39, "gov_latitude": 30.3932, "gov_longitude": 67.7156, "gov_schools_count": 13}, {"custom_school_name": "CS Goth Faqir Manna", "custom_district": "Ziarat", "custom_tehsil": "ZIARAT", "custom_division": "QUETTA", "custom_level": "High", "custom_gender": "Boys", "custom_students": 289, "custom_functional_status": "Functional", "custom_latitude": 30.4145, "custom_longitude": 67.7123, "gov_school_name": "GBPS GHARAT MANA", "gov_level": "Primary", "gov_gender": "Boys", "gov_district": "Ziarat", "gov_tehsil": "ZIARAT", "gov_uc": "Manna", "gov_enrollment": 55, "distance_km": 2.66, "gov_latitude": 30.4258, "gov_longitude": 67.6878, "gov_schools_count": 13}, {"custom_school_name": "CS Goth Faqir Manna", "custom_district": "Ziarat", "custom_tehsil": "ZIARAT", "custom_division": "QUETTA", "custom_level": "High", "custom_gender": "Boys", "custom_students": 289, "custom_functional_status": "Functional", "custom_latitude": 30.4145, "custom_longitude": 67.7123, "gov_school_name": "GBHS MANNA", "gov_level": "High", "gov_gender": "Boys", "gov_district": "Ziarat", "gov_tehsil": "ZIARAT", "gov_uc": "Manna", "gov_enrollment": 423, "distance_km": 3.2, "gov_latitude": 30.4289, "gov_longitude": 67.6834, "gov_schools_count": 13}, {"custom_school_name": "CS Goth Faqir Manna", "custom_district": "Ziarat", "custom_tehsil": "ZIARAT", "custom_division": "QUETTA", "custom_level": "High", "custom_gender": "Boys", "custom_students": 289, "custom_functional_status": "Functional", "custom_latitude": 30.4145, "custom_longitude": 67.7123, "gov_school_name": "GBPS KILLI YAR MUHAMMAD SASSNAK MANA", "gov_level": "Primary", "gov_gender": "Boys", "gov_district": "Ziarat", "gov_tehsil": "ZIARAT", "gov_uc": "Manna", "gov_enrollment": 45, "distance_km": 3.29, "gov_latitude": 30.3856, "gov_longitude": 67.7198, "gov_schools_count": 13}, {"custom_school_name": "CS Goth Faqir Manna", "custom_district": "Ziarat", "custom_tehsil": "ZIARAT", "custom_division": "QUETTA", "custom_level": "High", "custom_gender": "Boys", "custom_students": 289, "custom_functional_status": "Functional", "custom_latitude": 30.4145, "custom_longitude": 67.7123, "gov_school_name": "GBMIDS SASSNAK MANA", "gov_level": "Middle", "gov_gender": "Boys", "gov_district": "Ziarat", "gov_tehsil": "ZIARAT", "gov_uc": "Manna", "gov_enrollment": 296, "distance_km": 3.64, "gov_latitude": 30.3827, "gov_longitude": 67.7215, "gov_schools_count": 13}, {"custom_school_name": "CS Goth Faqir Manna", "custom_district": "Ziarat", "custom_tehsil": "ZIARAT", "custom_division": "QUETTA", "custom_level": "High", "custom_gender": "Boys", "custom_students": 289, "custom_functional_status": "Functional", "custom_latitude": 30.4145, "custom_longitude": 67.7123, "gov_school_name": "GBPS WASTI SPAZUNDI", "gov_level": "Primary", "gov_gender": "Boys", "gov_district": "Ziarat", "gov_tehsil": "ZIARAT", "gov_uc": "Spezandi", "gov_enrollment": 44, "distance_km": 4.27, "gov_latitude": 30.3812, "gov_longitude": 67.7345, "gov_schools_count": 13}, {"custom_school_name": "CS Goth Faqir Manna", "custom_district": "Ziarat", "custom_tehsil": "ZIARAT", "custom_division": "QUETTA", "custom_level": "High", "custom_gender": "Boys", "custom_students": 289, "custom_functional_status": "Functional", "custom_latitude": 30.4145, "custom_longitude": 67.7123, "gov_school_name": "GBPS DAWAT MANA", "gov_level": "Primary", "gov_gender": "Boys", "gov_district": "Ziarat", "gov_tehsil": "ZIARAT", "gov_uc": "Spezandi", "gov_enrollment": 39, "distance_km": 4.38, "gov_latitude": 30.3778, "gov_longitude": 67.7289, "gov_schools_count": 13}, {"custom_school_name": "BEF Community School Quetta", "custom_district": "Quetta", "custom_tehsil": "Quetta City", "custom_division": "QUETTA", "custom_level": "Middle", "custom_gender": "Boys", "custom_students": 178, "custom_functional_status": "Functional", "custom_latitude": 30.2056, "custom_longitude": 67.0334, "gov_school_name": "GGHS SATELLITE TOWN", "gov_level": "High", "gov_gender": "Girls", "gov_district": "Quetta", "gov_tehsil": "Quetta City", "gov_uc": "Satellite Town", "gov_enrollment": 489, "distance_km": 0.5, "gov_latitude": 30.2023, "gov_longitude": 67.0298, "gov_schools_count": 5}, {"custom_school_name": "BEF Community School Quetta", "custom_district": "Quetta", "custom_tehsil": "Quetta City", "custom_division": "QUETTA", "custom_level": "Middle", "custom_gender": "Boys", "custom_students": 178, "custom_functional_status": "Functional", "custom_latitude": 30.2056, "custom_longitude": 67.0334, "gov_school_name": "GBHS SATELLITE TOWN", "gov_level": "High", "gov_gender": "Boys", "gov_district": "Quetta", "gov_tehsil": "Quetta City", "gov_uc": "Satellite Town", "gov_enrollment": 567, "distance_km": 0.65, "gov_latitude": 30.2012, "gov_longitude": 67.0289, "gov_schools_count": 5}, {"custom_school_name": "BEF Community School Quetta", "custom_district": "Quetta", "custom_tehsil": "Quetta City", "custom_division": "QUETTA", "custom_level": "Middle", "custom_gender": "Boys", "custom_students": 178, "custom_functional_status": "Functional", "custom_latitude": 30.2056, "custom_longitude": 67.0334, "gov_school_name": "GGPS KAWAS", "gov_level": "Primary", "gov_gender": "Girls", "gov_district": "Quetta", "gov_tehsil": "Quetta City", "gov_uc": "Kawas", "gov_enrollment": 134, "distance_km": 2.68, "gov_latitude": 30.1856, "gov_longitude": 67.0178, "gov_schools_count": 5}, {"custom_school_name": "BEF Community School Quetta", "custom_district": "Quetta", "custom_tehsil": "Quetta City", "custom_division": "QUETTA", "custom_level": "Middle", "custom_gender": "Boys", "custom_students": 178, "custom_functional_status": "Functional", "custom_latitude": 30.2056, "custom_longitude": 67.0334, "gov_school_name": "GBMS KAWAS", "gov_level": "Middle", "gov_gender": "Boys", "gov_district": "Quetta", "gov_tehsil": "Quetta City", "gov_uc": "Kawas", "gov_enrollment": 245, "distance_km": 2.84, "gov_latitude": 30.1845, "gov_longitude": 67.0167, "gov_schools_count": 5}, {"custom_school_name": "BEF Community School Quetta", "custom_district": "Quetta", "custom_tehsil": "Quetta City", "custom_division": "QUETTA", "custom_level": "Middle", "custom_gender": "Boys", "custom_students": 178, "custom_functional_status": "Functional", "custom_latitude": 30.2056, "custom_longitude": 67.0334, "gov_school_name": "GBPS KAWAS", "gov_level": "Primary", "gov_gender": "Boys", "gov_district": "Quetta", "gov_tehsil": "Quetta City", "gov_uc": "Kawas", "gov_enrollment": 125, "distance_km": 3.0, "gov_latitude": 30.1834, "gov_longitude": 67.0156, "gov_schools_count": 5}, {"custom_school_name": "CS Khanozai Center", "custom_district": "Pishin", "custom_tehsil": "Pishin", "custom_division": "QUETTA", "custom_level": "Primary", "custom_gender": "Girls", "custom_students": 95, "custom_functional_status": "Functional", "custom_latitude": 30.5756, "custom_longitude": 66.8989, "gov_school_name": "GBHS KHANOZAI", "gov_level": "High", "gov_gender": "Boys", "gov_district": "Pishin", "gov_tehsil": "Pishin", "gov_uc": "Khanozai", "gov_enrollment": 456, "distance_km": 0.65, "gov_latitude": 30.5712, "gov_longitude": 66.8945, "gov_schools_count": 4}, {"custom_school_name": "CS Khanozai Center", "custom_district": "Pishin", "custom_tehsil": "Pishin", "custom_division": "QUETTA", "custom_level": "Primary", "custom_gender": "Girls", "custom_students": 95, "custom_functional_status": "Functional", "custom_latitude": 30.5756, "custom_longitude": 66.8989, "gov_school_name": "GGPS KHANOZAI", "gov_level": "Primary", "gov_gender": "Girls", "gov_district": "Pishin", "gov_tehsil": "Pishin", "gov_uc": "Khanozai", "gov_enrollment": 89, "distance_km": 0.81, "gov_latitude": 30.5701, "gov_longitude": 66.8934, "gov_schools_count": 4}, {"custom_school_name": "CS Khanozai Center", "custom_district": "Pishin", "custom_tehsil": "Pishin", "custom_division": "QUETTA", "custom_level": "Primary", "custom_gender": "Girls", "custom_students": 95, "custom_functional_status": "Functional", "custom_latitude": 30.5756, "custom_longitude": 66.8989, "gov_school_name": "GBMS KHANOZAI", "gov_level": "Middle", "gov_gender": "Boys", "gov_district": "Pishin", "gov_tehsil": "Pishin", "gov_uc": "Khanozai", "gov_enrollment": 198, "distance_km": 0.98, "gov_latitude": 30.5689, "gov_longitude": 66.8923, "gov_schools_count": 4}, {"custom_school_name": "CS Khanozai Center", "custom_district": "Pishin", "custom_tehsil": "Pishin", "custom_division": "QUETTA", "custom_level": "Primary", "custom_gender": "Girls", "custom_students": 95, "custom_functional_status": "Functional", "custom_latitude": 30.5756, "custom_longitude": 66.8989, "gov_school_name": "GBPS KILLI SHAHWANI", "gov_level": "Primary", "gov_gender": "Boys", "gov_district": "Pishin", "gov_tehsil": "Pishin", "gov_uc": "Khanozai", "gov_enrollment": 78, "distance_km": 1.14, "gov_latitude": 30.5678, "gov_longitude": 66.8912, "gov_schools_count": 4}, {"custom_school_name": "BEC Education Center Manna", "custom_district": "Ziarat", "custom_tehsil": "ZIARAT", "custom_division": "QUETTA", "custom_level": "Primary", "custom_gender": "Boys", "custom_students": 112, "custom_functional_status": "Functional", "custom_latitude": 30.3945, "custom_longitude": 67.7189, "gov_school_name": "GBPS KARHAHI LANDI SASNAK MANNA", "gov_level": "Primary", "gov_gender": "Boys", "gov_district": "Ziarat", "gov_tehsil": "ZIARAT", "gov_uc": "Manna", "gov_enrollment": 38, "distance_km": 0.35, "gov_latitude": 30.3932, "gov_longitude": 67.7156, "gov_schools_count": 25}, {"custom_school_name": "BEC Education Center Manna", "custom_district": "Ziarat", "custom_tehsil": "ZIARAT", "custom_division": "QUETTA", "custom_level": "Primary", "custom_gender": "Boys", "custom_students": 112, "custom_functional_status": "Functional", "custom_latitude": 30.3945, "custom_longitude": 67.7189, "gov_school_name": "GBPS KILLI YAR MUHAMMAD SASSNAK MANA", "gov_level": "Primary", "gov_gender": "Boys", "gov_district": "Ziarat", "gov_tehsil": "ZIARAT", "gov_uc": "Manna", "gov_enrollment": 45, "distance_km": 0.99, "gov_latitude": 30.3856, "gov_longitude": 67.7198, "gov_schools_count": 25}, {"custom_school_name": "BEC Education Center Manna", "custom_district": "Ziarat", "custom_tehsil": "ZIARAT", "custom_division": "QUETTA", "custom_level": "Primary", "custom_gender": "Boys", "custom_students": 112, "custom_functional_status": "Functional", "custom_latitude": 30.3945, "custom_longitude": 67.7189, "gov_school_name": "GBPS SASAN MANNA SALEEM SAKHORI", "gov_level": "Primary", "gov_gender": "Boys", "gov_district": "Ziarat", "gov_tehsil": "ZIARAT", "gov_uc": "Manna", "gov_enrollment": 52, "distance_km": 1.21, "gov_latitude": 30.4012, "gov_longitude": 67.7089, "gov_schools_count": 25}, {"custom_school_name": "BEC Education Center Manna", "custom_district": "Ziarat", "custom_tehsil": "ZIARAT", "custom_division": "QUETTA", "custom_level": "Primary", "custom_gender": "Boys", "custom_students": 112, "custom_functional_status": "Functional", "custom_latitude": 30.3945, "custom_longitude": 67.7189, "gov_school_name": "GBMIDS SASSAN MANNA", "gov_level": "Middle", "gov_gender": "Boys", "gov_district": "Ziarat", "gov_tehsil": "ZIARAT", "gov_uc": "Manna", "gov_enrollment": 187, "distance_km": 1.23, "gov_latitude": 30.4023, "gov_longitude": 67.7098, "gov_schools_count": 25}, {"custom_school_name": "BEC Education Center Manna", "custom_district": "Ziarat", "custom_tehsil": "ZIARAT", "custom_division": "QUETTA", "custom_level": "Primary", "custom_gender": "Boys", "custom_students": 112, "custom_functional_status": "Functional", "custom_latitude": 30.3945, "custom_longitude": 67.7189, "gov_school_name": "GBPS KILLI FAQIR ABAD MANA", "gov_level": "Primary", "gov_gender": "Boys", "gov_district": "Ziarat", "gov_tehsil": "ZIARAT", "gov_uc": "Manna", "gov_enrollment": 41, "distance_km": 1.23, "gov_latitude": 30.4025, "gov_longitude": 67.7101, "gov_schools_count": 25}, {"custom_school_name": "BEC Education Center Manna", "custom_district": "Ziarat", "custom_tehsil": "ZIARAT", "custom_division": "QUETTA", "custom_level": "Primary", "custom_gender": "Boys", "custom_students": 112, "custom_functional_status": "Functional", "custom_latitude": 30.3945, "custom_longitude": 67.7189, "gov_school_name": "GBMIDS SASSNAK MANA", "gov_level": "Middle", "gov_gender": "Boys", "gov_district": "Ziarat", "gov_tehsil": "ZIARAT", "gov_uc": "Manna", "gov_enrollment": 296, "distance_km": 1.34, "gov_latitude": 30.3827, "gov_longitude": 67.7215, "gov_schools_count": 25}, {"custom_school_name": "BEC Education Center Manna", "custom_district": "Ziarat", "custom_tehsil": "ZIARAT", "custom_division": "QUETTA", "custom_level": "Primary", "custom_gender": "Boys", "custom_students": 112, "custom_functional_status": "Functional", "custom_latitude": 30.3945, "custom_longitude": 67.7189, "gov_school_name": "GBPS SHARQUI SASSAN MANA", "gov_level": "Primary", "gov_gender": "Boys", "gov_district": "Ziarat", "gov_tehsil": "ZIARAT", "gov_uc": "Manna", "gov_enrollment": 67, "distance_km": 2.02, "gov_latitude": 30.4078, "gov_longitude": 67.7045, "gov_schools_count": 25}, {"custom_school_name": "BEC Education Center Manna", "custom_district": "Ziarat", "custom_tehsil": "ZIARAT", "custom_division": "QUETTA", "custom_level": "Primary", "custom_gender": "Boys", "custom_students": 112, "custom_functional_status": "Functional", "custom_latitude": 30.3945, "custom_longitude": 67.7189, "gov_school_name": "GBPS DAWAT MANA", "gov_level": "Primary", "gov_gender": "Boys", "gov_district": "Ziarat", "gov_tehsil": "ZIARAT", "gov_uc": "Spezandi", "gov_enrollment": 39, "distance_km": 2.09, "gov_latitude": 30.3778, "gov_longitude": 67.7289, "gov_schools_count": 25}, {"custom_school_name": "BEC Education Center Manna", "custom_district": "Ziarat", "custom_tehsil": "ZIARAT", "custom_division": "QUETTA", "custom_level": "Primary", "custom_gender": "Boys", "custom_students": 112, "custom_functional_status": "Functional", "custom_latitude": 30.3945, "custom_longitude": 67.7189, "gov_school_name": "GBPS WASTI SPAZUNDI", "gov_level": "Primary", "gov_gender": "Boys", "gov_district": "Ziarat", "gov_tehsil": "ZIARAT", "gov_uc": "Spezandi", "gov_enrollment": 44, "distance_km": 2.1, "gov_latitude": 30.3812, "gov_longitude": 67.7345, "gov_schools_count": 25}, {"custom_school_name": "BEC Education Center Manna", "custom_district": "Ziarat", "custom_tehsil": "ZIARAT", "custom_division": "QUETTA", "custom_level": "Primary", "custom_gender": "Boys", "custom_students": 112, "custom_functional_status": "Functional", "custom_latitude": 30.3945, "custom_longitude": 67.7189, "gov_school_name": "GGMIDS SHARQI ZARGAI", "gov_level": "Middle", "gov_gender": "Girls", "gov_district": "Ziarat", "gov_tehsil": "ZIARAT", "gov_uc": "Spezandi", "gov_enrollment": 156, "distance_km": 3.24, "gov_latitude": 30.3834, "gov_longitude": 67.7501, "gov_schools_count": 25}, {"custom_school_name": "BEC Education Center Manna", "custom_district": "Ziarat", "custom_tehsil": "ZIARAT", "custom_division": "QUETTA", "custom_level": "Primary", "custom_gender": "Boys", "custom_students": 112, "custom_functional_status": "Functional", "custom_latitude": 30.3945, "custom_longitude": 67.7189, "gov_school_name": "GBPS LUNDI SPINZANDI", "gov_level": "Primary", "gov_gender": "Boys", "gov_district": "Ziarat", "gov_tehsil": "ZIARAT", "gov_uc": "Spezandi", "gov_enrollment": 37, "distance_km": 3.45, "gov_latitude": 30.3856, "gov_longitude": 67.7534, "gov_schools_count": 25}, {"custom_school_name": "BEC Education Center Manna", "custom_district": "Ziarat", "custom_tehsil": "ZIARAT", "custom_division": "QUETTA", "custom_level": "Primary", "custom_gender": "Boys", "custom_students": 112, "custom_functional_status": "Functional", "custom_latitude": 30.3945, "custom_longitude": 67.7189, "gov_school_name": "GGHS ZARGI KILLI ABDULLAH JAN", "gov_level": "High", "gov_gender": "Girls", "gov_district": "Ziarat", "gov_tehsil": "ZIARAT", "gov_uc": "Spezandi", "gov_enrollment": 234, "distance_km": 3.63, "gov_latitude": 30.3723, "gov_longitude": 67.7467, "gov_schools_count": 25}, {"custom_school_name": "BEC Education Center Manna", "custom_district": "Ziarat", "custom_tehsil": "ZIARAT", "custom_division": "QUETTA", "custom_level": "Primary", "custom_gender": "Boys", "custom_students": 112, "custom_functional_status": "Functional", "custom_latitude": 30.3945, "custom_longitude": 67.7189, "gov_school_name": "GBPS KILLI AZAM MANA", "gov_level": "Primary", "gov_gender": "Boys", "gov_district": "Ziarat", "gov_tehsil": "ZIARAT", "gov_uc": "Spezandi", "gov_enrollment": 42, "distance_km": 3.63, "gov_latitude": 30.3867, "gov_longitude": 67.7556, "gov_schools_count": 25}, {"custom_school_name": "BEC Education Center Manna", "custom_district": "Ziarat", "custom_tehsil": "ZIARAT", "custom_division": "QUETTA", "custom_level": "Primary", "custom_gender": "Boys", "custom_students": 112, "custom_functional_status": "Functional", "custom_latitude": 30.3945, "custom_longitude": 67.7189, "gov_school_name": "GBPS SHARQI ZARGI", "gov_level": "Primary", "gov_gender": "Boys", "gov_district": "Ziarat", "gov_tehsil": "ZIARAT", "gov_uc": "Spezandi", "gov_enrollment": 48, "distance_km": 3.8, "gov_latitude": 30.3673, "gov_longitude": 67.7428, "gov_schools_count": 25}, {"custom_school_name": "BEC Education Center Manna", "custom_district": "Ziarat", "custom_tehsil": "ZIARAT", "custom_division": "QUETTA", "custom_level": "Primary", "custom_gender": "Boys", "custom_students": 112, "custom_functional_status": "Functional", "custom_latitude": 30.3945, "custom_longitude": 67.7189, "gov_school_name": "GBPS ZEREEN SPAZUNDI", "gov_level": "Primary", "gov_gender": "Boys", "gov_district": "Ziarat", "gov_tehsil": "ZIARAT", "gov_uc": "Spezandi", "gov_enrollment": 51, "distance_km": 3.82, "gov_latitude": 30.3665, "gov_longitude": 67.7419, "gov_schools_count": 25}, {"custom_school_name": "BEC Education Center Manna", "custom_district": "Ziarat", "custom_tehsil": "ZIARAT", "custom_division": "QUETTA", "custom_level": "Primary", "custom_gender": "Boys", "custom_students": 112, "custom_functional_status": "Functional", "custom_latitude": 30.3945, "custom_longitude": 67.7189, "gov_school_name": "GBHS SPAZUNDI", "gov_level": "High", "gov_gender": "Boys", "gov_district": "Ziarat", "gov_tehsil": "ZIARAT", "gov_uc": "Spezandi", "gov_enrollment": 389, "distance_km": 3.89, "gov_latitude": 30.3889, "gov_longitude": 67.7589, "gov_schools_count": 25}, {"custom_school_name": "BEC Education Center Manna", "custom_district": "Ziarat", "custom_tehsil": "ZIARAT", "custom_division": "QUETTA", "custom_level": "Primary", "custom_gender": "Boys", "custom_students": 112, "custom_functional_status": "Functional", "custom_latitude": 30.3945, "custom_longitude": 67.7189, "gov_school_name": "GBMIDS ZARGI", "gov_level": "Middle", "gov_gender": "Boys", "gov_district": "Ziarat", "gov_tehsil": "ZIARAT", "gov_uc": "Spezandi", "gov_enrollment": 167, "distance_km": 4.02, "gov_latitude": 30.3645, "gov_longitude": 67.7423, "gov_schools_count": 25}, {"custom_school_name": "BEC Education Center Manna", "custom_district": "Ziarat", "custom_tehsil": "ZIARAT", "custom_division": "QUETTA", "custom_level": "Primary", "custom_gender": "Boys", "custom_students": 112, "custom_functional_status": "Functional", "custom_latitude": 30.3945, "custom_longitude": 67.7189, "gov_school_name": "GBPS GORISTEEN MANA", "gov_level": "Primary", "gov_gender": "Boys", "gov_district": "Ziarat", "gov_tehsil": "ZIARAT", "gov_uc": "Spezandi", "gov_enrollment": 46, "distance_km": 4.09, "gov_latitude": 30.3901, "gov_longitude": 67.7612, "gov_schools_count": 25}, {"custom_school_name": "BEC Education Center Manna", "custom_district": "Ziarat", "custom_tehsil": "ZIARAT", "custom_division": "QUETTA", "custom_level": "Primary", "custom_gender": "Boys", "custom_students": 112, "custom_functional_status": "Functional", "custom_latitude": 30.3945, "custom_longitude": 67.7189, "gov_school_name": "GGPS KHARY GUT MANA", "gov_level": "Primary", "gov_gender": "Girls", "gov_district": "Ziarat", "gov_tehsil": "ZIARAT", "gov_uc": "Spezandi", "gov_enrollment": 53, "distance_km": 4.1, "gov_latitude": 30.3903, "gov_longitude": 67.7614, "gov_schools_count": 25}, {"custom_school_name": "BEC Education Center Manna", "custom_district": "Ziarat", "custom_tehsil": "ZIARAT", "custom_division": "QUETTA", "custom_level": "Primary", "custom_gender": "Boys", "custom_students": 112, "custom_functional_status": "Functional", "custom_latitude": 30.3945, "custom_longitude": 67.7189, "gov_school_name": "GBPS MULLA ABAD MALIKAT", "gov_level": "Primary", "gov_gender": "Boys", "gov_district": "Ziarat", "gov_tehsil": "ZIARAT", "gov_uc": "Manna", "gov_enrollment": 33, "distance_km": 4.17, "gov_latitude": 30.4234, "gov_longitude": 67.6912, "gov_schools_count": 25}, {"custom_school_name": "BEC Education Center Manna", "custom_district": "Ziarat", "custom_tehsil": "ZIARAT", "custom_division": "QUETTA", "custom_level": "Primary", "custom_gender": "Boys", "custom_students": 112, "custom_functional_status": "Functional", "custom_latitude": 30.3945, "custom_longitude": 67.7189, "gov_school_name": "GPS NARAI DAAG", "gov_level": "Primary", "gov_gender": "Girls", "gov_district": "Ziarat", "gov_tehsil": "ZIARAT", "gov_uc": "Spezandi", "gov_enrollment": 49, "distance_km": 4.18, "gov_latitude": 30.3912, "gov_longitude": 67.7623, "gov_schools_count": 25}, {"custom_school_name": "BEC Education Center Manna", "custom_district": "Ziarat", "custom_tehsil": "ZIARAT", "custom_division": "QUETTA", "custom_level": "Primary", "custom_gender": "Boys", "custom_students": 112, "custom_functional_status": "Functional", "custom_latitude": 30.3945, "custom_longitude": 67.7189, "gov_school_name": "GBPS SOORY MANA", "gov_level": "Primary", "gov_gender": "Boys", "gov_district": "Ziarat", "gov_tehsil": "ZIARAT", "gov_uc": "Manna", "gov_enrollment": 29, "distance_km": 4.19, "gov_latitude": 30.4236, "gov_longitude": 67.6911, "gov_schools_count": 25}, {"custom_school_name": "BEC Education Center Manna", "custom_district": "Ziarat", "custom_tehsil": "ZIARAT", "custom_division": "QUETTA", "custom_level": "Primary", "custom_gender": "Boys", "custom_students": 112, "custom_functional_status": "Functional", "custom_latitude": 30.3945, "custom_longitude": 67.7189, "gov_school_name": "GGPS AFZAL MANNA", "gov_level": "Primary", "gov_gender": "Girls", "gov_district": "Ziarat", "gov_tehsil": "ZIARAT", "gov_uc": "Spezandi", "gov_enrollment": 57, "distance_km": 4.28, "gov_latitude": 30.3923, "gov_longitude": 67.7634, "gov_schools_count": 25}, {"custom_school_name": "BEC Education Center Manna", "custom_district": "Ziarat", "custom_tehsil": "ZIARAT", "custom_division": "QUETTA", "custom_level": "Primary", "custom_gender": "Boys", "custom_students": 112, "custom_functional_status": "Functional", "custom_latitude": 30.3945, "custom_longitude": 67.7189, "gov_school_name": "GBPS GHARAT MANA", "gov_level": "Primary", "gov_gender": "Boys", "gov_district": "Ziarat", "gov_tehsil": "ZIARAT", "gov_uc": "Manna", "gov_enrollment": 55, "distance_km": 4.58, "gov_latitude": 30.4258, "gov_longitude": 67.6878, "gov_schools_count": 25}, {"custom_school_name": "BEC Education Center Manna", "custom_district": "Ziarat", "custom_tehsil": "ZIARAT", "custom_division": "QUETTA", "custom_level": "Primary", "custom_gender": "Boys", "custom_students": 112, "custom_functional_status": "Functional", "custom_latitude": 30.3945, "custom_longitude": 67.7189, "gov_school_name": "GGMIDS SPAZUNDI", "gov_level": "Middle", "gov_gender": "Girls", "gov_district": "Ziarat", "gov_tehsil": "ZIARAT", "gov_uc": "Spezandi", "gov_enrollment": 178, "distance_km": 4.69, "gov_latitude": 30.3945, "gov_longitude": 67.7678, "gov_schools_count": 25}, {"custom_school_name": "BEC Girls School Spezandi", "custom_district": "Ziarat", "custom_tehsil": "ZIARAT", "custom_division": "QUETTA", "custom_level": "Primary", "custom_gender": "Girls", "custom_students": 98, "custom_functional_status": "Functional", "custom_latitude": 30.3823, "custom_longitude": 67.7567, "gov_school_name": "GBPS LUNDI SPINZANDI", "gov_level": "Primary", "gov_gender": "Boys", "gov_district": "Ziarat", "gov_tehsil": "ZIARAT", "gov_uc": "Spezandi", "gov_enrollment": 37, "distance_km": 0.48, "gov_latitude": 30.3856, "gov_longitude": 67.7534, "gov_schools_count": 19}, {"custom_school_name": "BEC Girls School Spezandi", "custom_district": "Ziarat", "custom_tehsil": "ZIARAT", "custom_division": "QUETTA", "custom_level": "Primary", "custom_gender": "Girls", "custom_students": 98, "custom_functional_status": "Functional", "custom_latitude": 30.3823, "custom_longitude": 67.7567, "gov_school_name": "GBPS KILLI AZAM MANA", "gov_level": "Primary", "gov_gender": "Boys", "gov_district": "Ziarat", "gov_tehsil": "ZIARAT", "gov_uc": "Spezandi", "gov_enrollment": 42, "distance_km": 0.5, "gov_latitude": 30.3867, "gov_longitude": 67.7556, "gov_schools_count": 19}, {"custom_school_name": "BEC Girls School Spezandi", "custom_district": "Ziarat", "custom_tehsil": "ZIARAT", "custom_division": "QUETTA", "custom_level": "Primary", "custom_gender": "Girls", "custom_students": 98, "custom_functional_status": "Functional", "custom_latitude": 30.3823, "custom_longitude": 67.7567, "gov_school_name": "GGMIDS SHARQI ZARGAI", "gov_level": "Middle", "gov_gender": "Girls", "gov_district": "Ziarat", "gov_tehsil": "ZIARAT", "gov_uc": "Spezandi", "gov_enrollment": 156, "distance_km": 0.64, "gov_latitude": 30.3834, "gov_longitude": 67.7501, "gov_schools_count": 19}, {"custom_school_name": "BEC Girls School Spezandi", "custom_district": "Ziarat", "custom_tehsil": "ZIARAT", "custom_division": "QUETTA", "custom_level": "Primary", "custom_gender": "Girls", "custom_students": 98, "custom_functional_status": "Functional", "custom_latitude": 30.3823, "custom_longitude": 67.7567, "gov_school_name": "GBHS SPAZUNDI", "gov_level": "High", "gov_gender": "Boys", "gov_district": "Ziarat", "gov_tehsil": "ZIARAT", "gov_uc": "Spezandi", "gov_enrollment": 389, "distance_km": 0.76, "gov_latitude": 30.3889, "gov_longitude": 67.7589, "gov_schools_count": 19}, {"custom_school_name": "BEC Girls School Spezandi", "custom_district": "Ziarat", "custom_tehsil": "ZIARAT", "custom_division": "QUETTA", "custom_level": "Primary", "custom_gender": "Girls", "custom_students": 98, "custom_functional_status": "Functional", "custom_latitude": 30.3823, "custom_longitude": 67.7567, "gov_school_name": "GBPS GORISTEEN MANA", "gov_level": "Primary", "gov_gender": "Boys", "gov_district": "Ziarat", "gov_tehsil": "ZIARAT", "gov_uc": "Spezandi", "gov_enrollment": 46, "distance_km": 0.97, "gov_latitude": 30.3901, "gov_longitude": 67.7612, "gov_schools_count": 19}, {"custom_school_name": "BEC Girls School Spezandi", "custom_district": "Ziarat", "custom_tehsil": "ZIARAT", "custom_division": "QUETTA", "custom_level": "Primary", "custom_gender": "Girls", "custom_students": 98, "custom_functional_status": "Functional", "custom_latitude": 30.3823, "custom_longitude": 67.7567, "gov_school_name": "GGPS KHARY GUT MANA", "gov_level": "Primary", "gov_gender": "Girls", "gov_district": "Ziarat", "gov_tehsil": "ZIARAT", "gov_uc": "Spezandi", "gov_enrollment": 53, "distance_km": 1.0, "gov_latitude": 30.3903, "gov_longitude": 67.7614, "gov_schools_count": 19}, {"custom_school_name": "BEC Girls School Spezandi", "custom_district": "Ziarat", "custom_tehsil": "ZIARAT", "custom_division": "QUETTA", "custom_level": "Primary", "custom_gender": "Girls", "custom_students": 98, "custom_functional_status": "Functional", "custom_latitude": 30.3823, "custom_longitude": 67.7567, "gov_school_name": "GPS NARAI DAAG", "gov_level": "Primary", "gov_gender": "Girls", "gov_district": "Ziarat", "gov_tehsil": "ZIARAT", "gov_uc": "Spezandi", "gov_enrollment": 49, "distance_km": 1.13, "gov_latitude": 30.3912, "gov_longitude": 67.7623, "gov_schools_count": 19}, {"custom_school_name": "BEC Girls School Spezandi", "custom_district": "Ziarat", "custom_tehsil": "ZIARAT", "custom_division": "QUETTA", "custom_level": "Primary", "custom_gender": "Girls", "custom_students": 98, "custom_functional_status": "Functional", "custom_latitude": 30.3823, "custom_longitude": 67.7567, "gov_school_name": "GGPS AFZAL MANNA", "gov_level": "Primary", "gov_gender": "Girls", "gov_district": "Ziarat", "gov_tehsil": "ZIARAT", "gov_uc": "Spezandi", "gov_enrollment": 57, "distance_km": 1.28, "gov_latitude": 30.3923, "gov_longitude": 67.7634, "gov_schools_count": 19}, {"custom_school_name": "BEC Girls School Spezandi", "custom_district": "Ziarat", "custom_tehsil": "ZIARAT", "custom_division": "QUETTA", "custom_level": "Primary", "custom_gender": "Girls", "custom_students": 98, "custom_functional_status": "Functional", "custom_latitude": 30.3823, "custom_longitude": 67.7567, "gov_school_name": "GGHS ZARGI KILLI ABDULLAH JAN", "gov_level": "High", "gov_gender": "Girls", "gov_district": "Ziarat", "gov_tehsil": "ZIARAT", "gov_uc": "Spezandi", "gov_enrollment": 234, "distance_km": 1.47, "gov_latitude": 30.3723, "gov_longitude": 67.7467, "gov_schools_count": 19}, {"custom_school_name": "BEC Girls School Spezandi", "custom_district": "Ziarat", "custom_tehsil": "ZIARAT", "custom_division": "QUETTA", "custom_level": "Primary", "custom_gender": "Girls", "custom_students": 98, "custom_functional_status": "Functional", "custom_latitude": 30.3823, "custom_longitude": 67.7567, "gov_school_name": "GGMIDS SPAZUNDI", "gov_level": "Middle", "gov_gender": "Girls", "gov_district": "Ziarat", "gov_tehsil": "ZIARAT", "gov_uc": "Spezandi", "gov_enrollment": 178, "distance_km": 1.72, "gov_latitude": 30.3945, "gov_longitude": 67.7678, "gov_schools_count": 19}, {"custom_school_name": "BEC Girls School Spezandi", "custom_district": "Ziarat", "custom_tehsil": "ZIARAT", "custom_division": "QUETTA", "custom_level": "Primary", "custom_gender": "Girls", "custom_students": 98, "custom_functional_status": "Functional", "custom_latitude": 30.3823, "custom_longitude": 67.7567, "gov_school_name": "GBPS MULLA HOTAN", "gov_level": "Primary", "gov_gender": "Boys", "gov_district": "Ziarat", "gov_tehsil": "ZIARAT", "gov_uc": "Spezandi", "gov_enrollment": 40, "distance_km": 2.12, "gov_latitude": 30.3967, "gov_longitude": 67.7712, "gov_schools_count": 19}, {"custom_school_name": "BEC Girls School Spezandi", "custom_district": "Ziarat", "custom_tehsil": "ZIARAT", "custom_division": "QUETTA", "custom_level": "Primary", "custom_gender": "Girls", "custom_students": 98, "custom_functional_status": "Functional", "custom_latitude": 30.3823, "custom_longitude": 67.7567, "gov_school_name": "GBPS WASTI SPAZUNDI", "gov_level": "Primary", "gov_gender": "Boys", "gov_district": "Ziarat", "gov_tehsil": "ZIARAT", "gov_uc": "Spezandi", "gov_enrollment": 44, "distance_km": 2.13, "gov_latitude": 30.3812, "gov_longitude": 67.7345, "gov_schools_count": 19}, {"custom_school_name": "BEC Girls School Spezandi", "custom_district": "Ziarat", "custom_tehsil": "ZIARAT", "custom_division": "QUETTA", "custom_level": "Primary", "custom_gender": "Girls", "custom_students": 98, "custom_functional_status": "Functional", "custom_latitude": 30.3823, "custom_longitude": 67.7567, "gov_school_name": "GBPS SHARQI ZARGI", "gov_level": "Primary", "gov_gender": "Boys", "gov_district": "Ziarat", "gov_tehsil": "ZIARAT", "gov_uc": "Spezandi", "gov_enrollment": 48, "distance_km": 2.14, "gov_latitude": 30.3673, "gov_longitude": 67.7428, "gov_schools_count": 19}, {"custom_school_name": "BEC Girls School Spezandi", "custom_district": "Ziarat", "custom_tehsil": "ZIARAT", "custom_division": "QUETTA", "custom_level": "Primary", "custom_gender": "Girls", "custom_students": 98, "custom_functional_status": "Functional", "custom_latitude": 30.3823, "custom_longitude": 67.7567, "gov_school_name": "GBPS ZEREEN SPAZUNDI", "gov_level": "Primary", "gov_gender": "Boys", "gov_district": "Ziarat", "gov_tehsil": "ZIARAT", "gov_uc": "Spezandi", "gov_enrollment": 51, "distance_km": 2.26, "gov_latitude": 30.3665, "gov_longitude": 67.7419, "gov_schools_count": 19}, {"custom_school_name": "BEC Girls School Spezandi", "custom_district": "Ziarat", "custom_tehsil": "ZIARAT", "custom_division": "QUETTA", "custom_level": "Primary", "custom_gender": "Girls", "custom_students": 98, "custom_functional_status": "Functional", "custom_latitude": 30.3823, "custom_longitude": 67.7567, "gov_school_name": "GBMIDS ZARGI", "gov_level": "Middle", "gov_gender": "Boys", "gov_district": "Ziarat", "gov_tehsil": "ZIARAT", "gov_uc": "Spezandi", "gov_enrollment": 167, "distance_km": 2.41, "gov_latitude": 30.3645, "gov_longitude": 67.7423, "gov_schools_count": 19}, {"custom_school_name": "BEC Girls School Spezandi", "custom_district": "Ziarat", "custom_tehsil": "ZIARAT", "custom_division": "QUETTA", "custom_level": "Primary", "custom_gender": "Girls", "custom_students": 98, "custom_functional_status": "Functional", "custom_latitude": 30.3823, "custom_longitude": 67.7567, "gov_school_name": "GBPS DAWAT MANA", "gov_level": "Primary", "gov_gender": "Boys", "gov_district": "Ziarat", "gov_tehsil": "ZIARAT", "gov_uc": "Spezandi", "gov_enrollment": 39, "distance_km": 2.71, "gov_latitude": 30.3778, "gov_longitude": 67.7289, "gov_schools_count": 19}, {"custom_school_name": "BEC Girls School Spezandi", "custom_district": "Ziarat", "custom_tehsil": "ZIARAT", "custom_division": "QUETTA", "custom_level": "Primary", "custom_gender": "Girls", "custom_students": 98, "custom_functional_status": "Functional", "custom_latitude": 30.3823, "custom_longitude": 67.7567, "gov_school_name": "GBMIDS SASSNAK MANA", "gov_level": "Middle", "gov_gender": "Boys", "gov_district": "Ziarat", "gov_tehsil": "ZIARAT", "gov_uc": "Manna", "gov_enrollment": 296, "distance_km": 3.38, "gov_latitude": 30.3827, "gov_longitude": 67.7215, "gov_schools_count": 19}, {"custom_school_name": "BEC Girls School Spezandi", "custom_district": "Ziarat", "custom_tehsil": "ZIARAT", "custom_division": "QUETTA", "custom_level": "Primary", "custom_gender": "Girls", "custom_students": 98, "custom_functional_status": "Functional", "custom_latitude": 30.3823, "custom_longitude": 67.7567, "gov_school_name": "GBPS KILLI YAR MUHAMMAD SASSNAK MANA", "gov_level": "Primary", "gov_gender": "Boys", "gov_district": "Ziarat", "gov_tehsil": "ZIARAT", "gov_uc": "Manna", "gov_enrollment": 45, "distance_km": 3.56, "gov_latitude": 30.3856, "gov_longitude": 67.7198, "gov_schools_count": 19}, {"custom_school_name": "BEC Girls School Spezandi", "custom_district": "Ziarat", "custom_tehsil": "ZIARAT", "custom_division": "QUETTA", "custom_level": "Primary", "custom_gender": "Girls", "custom_students": 98, "custom_functional_status": "Functional", "custom_latitude": 30.3823, "custom_longitude": 67.7567, "gov_school_name": "GBPS KARHAHI LANDI SASNAK MANNA", "gov_level": "Primary", "gov_gender": "Boys", "gov_district": "Ziarat", "gov_tehsil": "ZIARAT", "gov_uc": "Manna", "gov_enrollment": 38, "distance_km": 4.12, "gov_latitude": 30.3932, "gov_longitude": 67.7156, "gov_schools_count": 19}, {"custom_school_name": "NHCD Boys School Saranan", "custom_district": "Pishin", "custom_tehsil": "Pishin", "custom_division": "QUETTA", "custom_level": "Middle", "custom_gender": "Boys", "custom_students": 145, "custom_functional_status": "Functional", "custom_latitude": 30.6178, "custom_longitude": 66.7901, "gov_school_name": "GGPS SARANAN", "gov_level": "Primary", "gov_gender": "Girls", "gov_district": "Pishin", "gov_tehsil": "Pishin", "gov_uc": "Saranan", "gov_enrollment": 72, "distance_km": 0.49, "gov_latitude": 30.6145, "gov_longitude": 66.7867, "gov_schools_count": 5}, {"custom_school_name": "NHCD Boys School Saranan", "custom_district": "Pishin", "custom_tehsil": "Pishin", "custom_division": "QUETTA", "custom_level": "Middle", "custom_gender": "Boys", "custom_students": 145, "custom_functional_status": "Functional", "custom_latitude": 30.6178, "custom_longitude": 66.7901, "gov_school_name": "GBMS SARANAN", "gov_level": "Middle", "gov_gender": "Boys", "gov_district": "Pishin", "gov_tehsil": "Pishin", "gov_uc": "Saranan", "gov_enrollment": 156, "distance_km": 0.65, "gov_latitude": 30.6134, "gov_longitude": 66.7856, "gov_schools_count": 5}, {"custom_school_name": "NHCD Boys School Saranan", "custom_district": "Pishin", "custom_tehsil": "Pishin", "custom_division": "QUETTA", "custom_level": "Middle", "custom_gender": "Boys", "custom_students": 145, "custom_functional_status": "Functional", "custom_latitude": 30.6178, "custom_longitude": 66.7901, "gov_school_name": "GBPS SARANAN", "gov_level": "Primary", "gov_gender": "Boys", "gov_district": "Pishin", "gov_tehsil": "Pishin", "gov_uc": "Saranan", "gov_enrollment": 67, "distance_km": 0.81, "gov_latitude": 30.6123, "gov_longitude": 66.7845, "gov_schools_count": 5}, {"custom_school_name": "NHCD Boys School Saranan", "custom_district": "Pishin", "custom_tehsil": "Pishin", "custom_division": "QUETTA", "custom_level": "Middle", "custom_gender": "Boys", "custom_students": 145, "custom_functional_status": "Functional", "custom_latitude": 30.6178, "custom_longitude": 66.7901, "gov_school_name": "GBPS YARU", "gov_level": "Primary", "gov_gender": "Boys", "gov_district": "Pishin", "gov_tehsil": "Pishin", "gov_uc": "Yaru", "gov_enrollment": 54, "distance_km": 4.44, "gov_latitude": 30.6456, "gov_longitude": 66.8234, "gov_schools_count": 5}, {"custom_school_name": "NHCD Boys School Saranan", "custom_district": "Pishin", "custom_tehsil": "Pishin", "custom_division": "QUETTA", "custom_level": "Middle", "custom_gender": "Boys", "custom_students": 145, "custom_functional_status": "Functional", "custom_latitude": 30.6178, "custom_longitude": 66.7901, "gov_school_name": "GBMS YARU", "gov_level": "Middle", "gov_gender": "Boys", "gov_district": "Pishin", "gov_tehsil": "Pishin", "gov_uc": "Yaru", "gov_enrollment": 123, "distance_km": 4.6, "gov_latitude": 30.6467, "gov_longitude": 66.8245, "gov_schools_count": 5},